     3.03           OBSERVATION DATA    M                   RINEX VERSION / TYPE
GnssLogger          Google 13           20230714 055659 UTC PGM / RUN BY / DATE
Google GnssLogger                                           MARKER NAME
Unknown                                                     MARKER NUMBER
Unknown             Unknown                                 OBSERVER / AGENCY
Unknown             GnssLogger          v3.0.6.3            REC # / TYPE / VERS
Unknown             Unknown                                 ANT # / TYPE
        0.0000        0.0000        0.0000                  ANTENNA: DELTA H/E/N
G    8 C1C L1C D1C S1C C5Q L5Q D5Q S5Q                      SYS / # / OBS TYPES
R    4 C1C L1C D1C S1C                                      SYS / # / OBS TYPES
C    8 C2I L2I D2I S2I C7Q L7Q D7Q S7Q                      SYS / # / OBS TYPES
E    8 C1C L1C D1C S1C C5Q L5Q D5Q S5Q                      SYS / # / OBS TYPES
  2023    07    14    05    56   59.0000000     GPS         TIME OF FIRST OBS
 6 R12 -1 R13 -2 R14 -7 R22 -3 R23  3 R24  2                GLONASS SLOT / FRQ #
G L1C                                                       SYS / PHASE SHIFT
G L5Q  0.00000                                              SYS / PHASE SHIFT
R L1C                                                       SYS / PHASE SHIFT
C L2I                                                       SYS / PHASE SHIFT
C L7Q  0.00000                                              SYS / PHASE SHIFT
E L1C  0.00000                                              SYS / PHASE SHIFT
E L5Q  0.00000                                              SYS / PHASE SHIFT
 C1C    0.000 C1P    0.000 C2C    0.000 C2P    0.000        GLONASS COD/PHS/BIS
                                                            END OF HEADER
> 2023 07 14 05 56 59.0855938  0 18                      
G05  23704289.26223       500.30423      -767.80423        21.10323                                                                
G18  21163454.64525     -5211.68225       750.88225        31.79725  21163269.97305     -3911.25705       560.78105        34.43305
G26  20275872.30627      2500.43927      -335.93627        42.18527  20275696.32806      2735.93506      -251.22306        37.05206
G29  22069304.83806     28504.29306     -3616.84206        35.67906                                                                
G31  21741489.58027     24536.23827     -3128.89827        42.21727                                                                
R22  20366200.97226     28978.54826     -3771.57326        36.15426
R13  19175664.26424      8880.66224     -1098.54324        24.55324
R12  21055405.84625     34172.29025     -4449.09725        32.99325
R24  22962343.10114    -15578.00014      3104.12914        25.22414
R23  19488301.92926     -4587.71226       585.77726        40.05926
C11  22363202.77725     19375.90425     -2811.93325        34.15525
C23  22552154.76826   1379096.80026     -2682.18826        36.12426
C28  23752090.27024     -9983.55224      1765.25624        27.45424
C34  24008428.71127     13692.80727     -3713.59027        41.51327
C43  21600995.14225     10234.57325     -1319.46525        33.59825
E02  23506821.96606     13291.83906     -1976.55406        36.56906  23506644.48905     11764.41405     -1475.88105        30.77305
E30  24441915.41405     -3343.82705       717.49805        30.00905                                                                
E34  25490993.55205     -6560.66605      1820.22705        32.06005  25490822.97005     -4911.48305      1359.49205        30.89205
> 2023 07 14 05 57 00.0855930  0 20                      
G18  21163107.18625     -5962.24825       751.11925        31.01725  21162917.11705     -4471.51705       559.77705        34.72805
G20  24610533.08223      3850.27023     -2591.21723        21.03823                                                                
G26  20275727.20627      2837.09027      -337.49327        42.18527  20275550.02906      2987.37006      -252.46206        37.44406
G29  22069789.00306     32121.53206     -3617.58006        35.53406                                                                
G31  21741873.31427     27665.65327     -3129.80727        43.44227                                                                
R14  21976658.77623    -15641.92823      2737.35123        20.06223
R22  20366706.42326     32750.63126     -3772.84526        36.28526
R13  19175655.27024      9976.03924     -1100.82024        24.80724
R12  21056022.51925     38622.26825     -4450.56625        34.21325
R24  22961537.55814    -18681.01314      3098.77814        25.48114
R23  19487989.84526     -5172.74926       584.05926        39.74526
C11  22363534.04825     22188.42525     -2813.90925        33.53525
C23  22552462.05525   1381780.24625     -2686.34025        34.65125
C28  23751535.95424    -11747.50424      1764.33824        28.04024
C34  24008930.26326     17406.87626     -3714.63526        41.44126
C43  21601035.91425     11554.41025     -1320.62225        33.61525
E02  23506985.65206     15268.60006     -1976.80106        36.83606  23506810.57405     13240.63005     -1476.34805        31.92305
E30  24441572.15204     -4061.03404       716.26504        29.24504                                                                
E34  25490441.03505     -8380.72705      1819.48005        31.44305  25490267.45505     -6270.58005      1358.63705        31.37105
E36  23717205.82024      4059.80524      -730.65824        28.49424                                                                
> 2023 07 14 05 57 00.9995925  0 20                      
G05  23704175.94023      2737.62523      -768.67223        19.93023                                                                
G18  21162791.20505     -6646.45905       748.76305        31.24305  21162605.63305     -4982.85105       559.07405        33.60505
G26  20275608.48806      3146.11906      -337.87006        40.92306  20275428.91306      3217.72706      -252.23706        39.01006
G29  22070241.98905     35428.48605     -3618.33705        34.70505                                                                
G31  21742238.16208     30527.53308     -3130.82008        48.04608                                                                
R14  21976101.46223    -18142.27723      2736.84123        19.94623
R22  20367176.49726     36199.17626     -3773.05526        36.44526
R13  19175656.76924     10981.20924     -1102.44024        24.14024
R12  21056592.12526     42690.60526     -4451.41626        40.59426
R24  22960805.46524    -21516.20824      3106.58524        24.39324
R23  19487729.92515     -5705.09015       588.78715        34.25015
C11  22363845.83225     24759.59125     -2813.19625        32.96525
C23  22552745.35926   1384233.23126     -2684.21126        37.87326
C28  23751040.39725    -13358.93725      1762.78325        31.47825
C34  24009409.93126     20802.06126     -3714.33526        38.88826
C43  21601085.08025     12761.60825     -1321.02825        31.34525
E02  23507146.94106     17076.31006     -1977.86406        37.13406  23506973.96105     14590.49905     -1476.86305        32.15505
E30  24441290.64704     -4715.91104       715.78404        26.05104                                                                
E34  25489944.57924    -10043.54524      1819.59324        28.14424  25489770.09905     -7512.23505      1358.38705        32.39205
E36  23717152.45724      4711.24024      -730.81224        24.83024                                                                
> 2023 07 14 05 57 01.9995919  0 22                      
G05  23704125.87523      3515.43623      -769.77823        19.16923                                                                
G16  21843918.77023     -1954.04923      1667.31523        20.76123                                                                
G18  21162462.33205     -7395.17405       748.16505        33.42205  21162283.05605     -5542.30805       559.61405        32.45405
G20  24611146.45823     11397.49223     -2595.32023        21.58523                                                                
G26  20275491.86906      3484.22206      -338.71406        41.24506  20275313.49306      3470.14406      -252.62406        39.84706
G29  22070756.43305     39047.17305     -3620.59705        33.30005                                                                
G31  21742656.67207     33658.24107     -3130.58707        46.84207                                                                
R14  21975411.93923    -20876.96523      2736.84123        19.52423
R22  20367703.83225     39972.43925     -3773.12825        33.59525
R13  19175687.34823     12081.42123     -1104.62723        23.26223
R12  21057240.57626     47141.67226     -4451.49026        39.32226
R24  22960037.09723    -24620.15523      3105.01923        21.19923
R23  19487429.53325     -6291.01925       582.43825        35.09425
C11  22364204.08425     27572.87025     -2813.87325        30.46525                                                                
C23  22553086.82326   1386917.48226     -2684.48326        37.61326                                                                
C28  23750519.05825    -15121.77725      1762.60125        30.90825                                                                
C34  24009936.36726     24517.22126     -3716.12326        37.58826                                                                
C43  21601150.43525     14082.89325     -1321.36625        34.46125  21601131.24805     10902.64405      -996.12105        30.01205
E02  23507342.40505     19053.94505     -1977.70605        34.96205  23507175.42105     16067.33105     -1477.12405        31.53605
E30  24440956.37804     -5432.32704       716.08504        27.44604                                                                
E34  25489415.74505    -11862.72105      1819.62005        30.91105  25489243.96405     -8870.68905      1359.04005        32.03705
E36  23717103.29124      5418.18524      -729.78124        25.67124                                                                
> 2023 07 14 05 57 02.9995912  0 19                      
G05  23704008.35623      4287.65723      -773.65723        19.52623                                                                
G16  21843417.51724     -5282.99324      1662.25324        28.69024                                                                
G18  21162107.97705     -8142.85305       746.65205        33.03005  21161940.39405     -6100.32805       557.44605        31.48105
G20  24611429.16223     13992.11023     -2596.67023        21.60223                                                                
G26  20275344.07106      3823.58506      -339.89106        40.95806  20275168.09306      3723.58806      -253.68206        37.68206
G29  22071227.70705     42666.46905     -3619.83405        32.15405                                                                
G31  21743039.80707     36790.36607     -3133.01707        44.34707                                                                
R22  20368193.09315     43746.80815     -3775.62515        30.03915
R13  19175677.75523     13180.21223     -1105.78323        21.54923
R23  19487101.26125     -6872.72125       581.02125        34.71925
C11  22364535.35425     30387.57525     -2815.00125        30.36225                                                                
C23  22553395.90927   1389602.95727     -2686.00527        43.28727  22553366.52905     26115.23905     -2024.44905        30.76705
C28  23749953.94925    -16883.81125      1761.73025        32.94525                                                                
C34  24010450.81125     28233.26025     -3715.89925        34.05025  24010425.32824     24923.19324     -2799.41324        24.61924
C43  21601201.39926     15405.26826     -1322.65026        35.68726  21601169.92104     11899.29704      -996.31404        27.39004
E02  23507512.68805     21033.04905     -1980.21305        30.76905  23507346.00305     17545.03605     -1477.52405        32.43505
E30  24440601.72424     -6147.36624       717.34024        24.59124                                                                
E34  25488860.22905    -13680.98505      1817.93605        29.79405  25488686.64904    -10228.59504      1357.48904        27.75904
E36  23717030.74124      6148.43724      -731.08324        26.78724                                                                
> 2023 07 14 05 57 03.9995906  0 20                      
G05  23703958.89124      5069.86024      -776.18824        24.85924                                                                
G16  21842920.46114     -6944.81714      1661.69714        28.19114                                                                
G18  21161786.60015     -8888.92515       745.87615        29.84815  21161619.01605     -6657.67505       556.75505        32.50105
G20  24611750.54023     16592.83123     -2596.80223        21.94123                                                                
G26  20275227.45206      4163.62706      -341.52406        41.00806  20275054.47206      3977.57306      -254.48706        40.46306
G29  22071736.45515     46285.39915     -3617.19615        30.41615                                                                
G31  21743461.91507     39923.78007     -3133.72507        44.56407                                                                
R22  20368709.03614     47522.30614     -3776.52514        26.22314
R13  19175698.74024     14278.66724     -1106.75524        26.05524
R23  19486815.85826     -7453.07426       580.08926        39.69026
C11  22365056.09405     33203.07905     -2815.87305        33.17305                                                                
C23  22553883.07206   1392289.69806     -2687.70006        39.23906  22553704.09605     28139.52105     -2025.05205        31.87905
C28  23749439.20525    -18645.18125      1760.04625        30.28525                                                                
C34  24010990.43725     31949.33325     -3717.12725        32.69525  24010959.25904     27723.52104     -2800.57504        28.85504
C37  23039176.91024     -2686.49724       532.67624        26.22324                                                                
C43  21601430.14125     16728.49125     -1324.07825        35.35025  21601247.86705     12896.32905      -997.45005        30.88105
E02  23507694.96105     23012.89905     -1979.89605        33.52505  23507542.36705     19023.59605     -1478.50205        31.61505
E30  24440290.53904     -6862.30204       713.83004        28.17904                                                                
E34  25488328.39705    -15498.11205      1816.99005        33.83005  25488161.41304    -11585.42904      1356.82804        27.88704
E36  23716988.17124      6878.82924      -729.04424        24.34224                                                                
> 2023 07 14 05 57 04.9995899  0 20                      
G05  23703940.30424      5844.64324      -773.68224        24.26124                                                                
G16  21842405.71724     -8606.76224      1664.97124        25.95724                                                                
G18  21161470.61905     -9634.43705       744.61705        30.61705  21161295.84005     -7214.14105       555.71905        31.99605
G20  24612067.12023     19192.58123     -2599.20223        19.17523                                                                
G26  20275108.13506      4504.61806      -341.90606        40.66106  20274938.75206      4232.06906      -255.08706        40.77306
G29  22072219.12125     49913.69225     -3620.58925        30.61725                                                                
G31  21743872.93007     43057.71807     -3134.62707        45.75407                                                                
R22  20369211.78814     51299.47314     -3780.96614        26.58714
R13  19175738.91224     15382.94724     -1109.57224        27.31524
R23  19486526.55827     -8032.81527       578.96727        42.08527
C11  22365418.54325     36018.31125     -2816.01925        32.29525                                                                
C23  22554220.33805   1394976.75805     -2688.48705        35.24605  22554041.36205     30164.32205     -2025.05605        32.85305
C28  23748906.47424    -20406.42124      1760.54424        29.18424  23748883.09004    -14525.20104      1326.35604        27.50204
C34  24011515.97326     35666.22026     -3717.88826        35.90226  24011493.78904     30524.47004     -2801.70604        28.96604
C37  23038932.27924     -3224.30624       518.74524        28.52924                                                                
C43  21601501.49226     18052.10726     -1324.16826        36.51326  21601323.41505     13893.91405      -998.50905        33.53305
E02  23507894.62305     24993.58905     -1981.76305        32.50305  23507728.23805     20502.59305     -1479.13005        30.36105
E30  24439963.76505     -7576.67905       714.18605        31.72205                                                                
E34  25487803.46105    -17315.27305      1816.32105        35.08005  25487635.27705    -12942.32105      1356.25105        30.59005
E36  23716954.29424      7604.07424      -729.67324        24.25424  23716778.61624      5132.15524      -546.43024        25.00224
> 2023 07 14 05 57 05.9995893  0 20                      
G05  23703874.64923      6625.35323      -774.95723        23.31823                                                                
G16  21841880.48124    -10267.77224      1664.50224        25.24724                                                                
G18  21161115.06505    -10379.25505       745.03005        33.45605  21160940.88505     -7770.21805       555.92105        31.93305
G20  24612390.29723     21792.97923     -2598.76223        18.78023                                                                
G26  20274964.83406      4846.36106      -341.94806        41.17806  20274794.25206      4487.22306      -254.98306        39.30506
G29  22072726.66925     53537.41725     -3618.98225        34.92225                                                                
G31  21744259.06307     46192.38207     -3134.77207        45.55007                                                                
R22  20369772.10025     55076.81725     -3777.29825        30.64325
R13  19175689.14724     16492.95124     -1115.37624        23.94324
R23  19486196.18726     -8611.52526       578.03626        37.65426
C11  22365743.51826     38834.73526     -2816.11326        35.96026                                                                
C23  22554525.22706   1397664.40106     -2687.68406        36.44006  22554346.85104     32189.83804     -2025.44904        29.27704
C28  23748368.04724    -22167.48024      1758.96924        25.74624  23748337.16804    -15851.83404      1326.49004        28.54404
C34  24012014.82826     39383.47826     -3716.89626        36.65026  24011998.93904     33325.62704     -2800.75804        26.32204
C37  23038629.18924     -3742.75824       518.65324        28.42624                                                                
C43  21601539.26625     19376.39125     -1324.73725        34.28625  21601367.48405     14892.03405      -998.22905        30.56705
E02  23508040.62204     26974.40604     -1980.36704        28.73804  23507900.61904     21981.85004     -1478.94104        28.59104
E30  24439619.00424     -8289.84524       710.93324        26.95324                                                                
E34  25487250.04405    -19131.91805      1816.65605        33.11305  25487078.86205    -14298.90605      1356.38205        30.08605
E36  23716879.64624      8321.84324      -731.06624        28.23524  23716707.56523      5678.30623      -546.75223        22.48523
> 2023 07 14 05 57 06.9995887  0 20                      
G05  23703845.86923      7409.36023      -776.94623        20.78623                                                                
G16  21841386.12324    -11928.12824      1663.16624        24.70624                                                                
G18  21160792.78805    -11123.18705       742.90105        33.59305  21160618.60905     -8325.93505       555.04005        30.69405
G20  24612701.48123     24395.99723     -2599.99723        18.26923                                                                
G26  20274848.21506      5188.51606      -342.91706        41.01006  20274678.83206      4742.90006      -256.30006        39.19006
G29  22073228.52205     57159.13505     -3621.77105        34.77205                                                                
G31  21744675.47407     49327.78907     -3135.74907        45.22807                                                                
R22  20370259.86324     58854.32424     -3775.17124        28.46124
R13  19175718.22723     17606.18923     -1117.53923        20.65123
R23  19485910.48525     -9189.04425       576.02825        33.58825
C11  22366102.37025     41651.38425     -2816.89725        35.08325                                                                
C23  22554860.99506   1400352.74406     -2688.79406        38.07906  22554682.91804     34215.88704     -2027.47604        27.11204
C28  23747858.99924    -23926.65224      1758.78524        23.78824  23747819.42704    -17178.14704      1325.87104        28.13004
C34  24012544.56126     43100.72126     -3717.75726        35.68126  24012532.86914     36126.89614     -2799.28714        23.97414
C37  23038349.18325     -4260.45825       517.19625        29.97825  23038318.00424     -9515.33024       390.64124        24.11024
C43  21601607.31825     20701.24525     -1325.10425        32.64725  21601441.53304     15890.60704      -998.25604        27.96504
E02  23508253.47504     28955.60404     -1981.45904        28.01304  23508096.08404     23461.40204     -1479.98504        29.44704
E30  24439296.42724     -9002.24724       710.76724        25.19424                                                                
E34  25486726.90605    -20947.97305      1815.68305        32.93405  25486553.92604    -15655.09304      1356.13704        29.46904
E36  23716830.18024      9040.55924      -732.18324        28.61124                                                                
> 2023 07 14 05 57 07.9995880  0 20                      
G05  23703785.31123      8193.06623      -778.87323        19.94223                                                                
G16  21840862.68524    -13587.91524      1662.64624        25.09624                                                                
G18  21160438.13405    -11866.48305       742.74805        33.44605  21160262.15505     -8880.88805       555.14905        30.61005
G20  24613023.15923     27000.08823     -2599.99723        18.07223                                                                
G26  20274698.01906      5531.69506      -343.48106        37.26706  20274534.33206      4999.10106      -256.53706        38.44406
G29  22073702.19405     60780.92705     -3621.88605        32.29805                                                                
G31  21745062.20707     52463.98207     -3136.42007        45.39707                                                                
R22  20370742.52824     62632.93024     -3779.16724        29.09824
R13  19175727.52024     18726.49924     -1116.32324        24.23524
R23  19485606.79525     -9765.65025       576.59825        30.98125
C11  22366430.04326     44468.70426     -2817.38326        36.36526                                                                
C23  22555173.37807   1403041.84507     -2689.33807        42.46407  22554987.50704     36242.35204     -2026.41604        25.72404
C28  23747311.27823    -25678.36323      1759.08423        23.33123  23747272.00604    -18504.07604      1326.07604        28.39504
C34  24013065.30126     46818.45426     -3718.03626        38.95226  24013039.51904     38928.75204     -2802.23304        24.48704
C37  23038029.90425     -4777.49425       516.79525        31.21725  23038007.12024     -9904.89424       389.68224        24.28624
C43  21601693.95825     22026.98425     -1325.86025        31.74525  21601487.70104     16889.67004      -998.71904        28.40004
E02  23508426.75504     30937.48404     -1981.94604        28.69204  23508264.26704     24941.31004     -1479.41804        29.32704
E30  24438947.46923     -9716.11823       712.27523        21.94823                                                                
E34  25486172.29005    -22763.49505      1815.43005        32.00205  25485999.01004    -17010.83004      1356.06004        29.12004
E36  23716767.22404      9773.32504      -733.15704        27.61204  23716594.84323      6772.53723      -546.75923        22.56423
> 2023 07 14 05 57 08.9995874  0 19                      
G05  23703751.43423      8970.23723      -779.57423        20.60123                                                                
G16  21840365.62923    -15246.95923      1661.42923        21.61823                                                                
G18  21160118.85505    -12609.22805       742.73605        34.31005  21159941.67705     -9435.49805       554.60605        29.79105
G26  20274593.69106      5875.26906      -343.87906        39.61306  20274420.11106      5255.63906      -256.73306        40.37306
G29  22074218.13705     64402.88805     -3622.29005        32.61305                                                                
G31  21745478.31907     55600.51807     -3136.62307        46.34907                                                                
R22  20371280.95624     66412.04024     -3779.14724        28.61224
R13  19175758.09923     19844.74823     -1115.15523        22.15223
R23  19485316.89625    -10342.00825       575.88425        33.97625
C11  22366791.29305     47286.47205     -2818.12805        35.31905                                                                
C23  22555506.74806   1405731.24306     -2689.63706        41.15306  22555325.07304     38269.05104     -2027.14604        24.67204
C28  23746792.63824    -27437.52224      1759.24524        24.21624  23746752.76504    -19829.83504      1325.74604        29.07604
C34  24013589.93826     50536.66226     -3718.58126        36.98826  24013576.44704     41730.77004     -2802.17404        25.39204
C37  23037753.49525     -5294.18625       516.31225        30.88425  23037728.61224    -10294.23824       389.55524        24.52624
C43  21601714.64405     23353.80605     -1325.82705        30.24505  21601563.24904     17889.00904      -999.19704        29.01504
E02  23508625.51705     32919.63705     -1982.23105        29.96805  23508463.03005     26421.49605     -1480.60805        29.57005
E30  24438633.88623    -10435.22123       712.34023        21.98223                                                                
E34  25485647.05405    -24579.02505      1815.45605        32.87305  25485474.97305    -18366.57105      1355.97305        30.21705
E36  23716708.46404     10506.77204      -734.16604        27.63804                                                                
> 2023 07 14 05 57 09.9995868  0 18                      
G16  21839868.27422    -16906.27322      1661.58222        16.79622                                                                
G18  21159802.87305    -13351.31505       741.29105        34.62505  21159621.79905     -9989.78605       554.29705        29.59205
G26  20274477.97106      6219.33406      -344.82606        41.01406  20274304.99106      5512.63006      -257.73306        40.26506
G29  22074730.48205     68025.10405     -3622.80005        34.63805                                                                
G31  21745898.32807     58737.62207     -3137.83807        45.71907                                                                
R22  20371771.41614     70191.71614     -3778.33414        26.11914
R13  19175778.18523     20961.16323     -1115.74023        22.88223
R23  19485031.19426    -10917.30626       574.32426        36.46526
C11  22367151.94305     50104.42605     -2818.63405        34.75605                                                                
C23  22555841.31606   1408421.14506     -2690.74206        40.25806  22555664.13904     40296.23404     -2027.94204        25.88604
C28  23746429.58924    -29196.63724      1759.48824        24.17324  23746235.62304    -21155.47204      1325.29504        28.98704
C34  24014118.47225     54254.97825     -3718.86825        34.00725  24014108.27913     44533.01013     -2802.86613        23.30213
C37  23037474.68825     -5810.55925       515.87325        30.96025  23037450.10523    -10683.19623       389.49223        23.15023
C43  21601799.18625     24679.96425     -1327.24925        31.83625  21601638.19704     18888.79904     -1000.41604        29.39104
E02  23508816.78505     34901.97805     -1982.92705        30.16805  23508659.09404     27901.79204     -1480.68104        29.33704
E30  24438321.20223    -11161.70323       712.31823        22.57123                                                                
E34  25485122.71705    -26394.20205      1814.22905        33.99005  25484948.53705    -19722.10905      1355.43705        30.21905
E36  23716672.78904     11240.51004      -734.42904        27.19204                                                                
> 2023 07 14 05 57 10.9995861  0 19                      
G05  23703657.30023     10520.36023      -781.83523        17.68223                                                                
G16  21839344.53623    -18563.15923      1662.07023        18.46523                                                                
G18  21159452.71605    -14092.25105       740.02905        34.98805  21159273.74005    -10543.13605       552.61805        30.52205
G26  20274336.76906      6564.54806      -345.92506        39.23606  20274161.39006      5770.33506      -258.16106        39.07706
G29  22075210.75005     71648.16005     -3623.71805        35.35005                                                                
G31  21746281.16307     61875.75707     -3138.85707        44.14807                                                                
R22  20372256.18124     73972.47524     -3773.80924        24.17124
R13  19175795.27314     22076.13914     -1115.07614        24.66514
R23  19484721.20815    -11492.48915       575.41315        32.65215
C11  22367486.21205     52923.29805     -2819.46905        33.21705                                                                
C23  22556152.80006   1411111.95806     -2691.03406        40.82706  22555972.02504     42324.23504     -2028.17404        28.28804
C28  23745881.56814    -30954.68414      1758.69214        27.16514  23745688.50204    -22480.64004      1325.19304        27.21304
C34  24014633.51525     57973.97225     -3719.26225        34.89425  24014613.42923     47335.34723     -2802.10823        22.58423
C37  23037173.39725     -6325.89025       514.26825        29.84425  23037141.61923    -11071.21923       388.89123        21.57923
C43  21601843.55525     26007.27725     -1327.36825        29.69425  21601683.16604     19889.13704     -1000.36304        28.54804
E02  23508981.07105     36885.13805     -1984.28305        29.75405  23508825.17905     29382.76105     -1481.18405        31.70905
E30  24437976.14124    -11895.44224       711.82224        26.06824                                                                
E34  25484569.30005    -28208.65405      1813.72505        32.00105  25484393.32204    -21077.10004      1354.54704        28.69404
E36  23716597.54104     11975.30904      -735.21704        26.89504                                                                
> 2023 07 14 05 57 11.9995855  0 19                      
G05  23703634.81522     11291.41622      -781.46222        17.29922                                                                
G16  21838851.37823    -20224.28723      1661.87323        17.68123                                                                
G18  21159132.53705    -14832.72905       740.16505        34.98605  21158951.76305    -11096.06705       552.61205        32.56905
G26  20274224.94605      6910.19805      -344.97805        35.47605  20274046.86906      6028.38206      -258.10506        38.71906
G29  22075718.29805     75271.38005     -3623.02505        33.84605                                                                
G31  21746706.26906     65014.38406     -3139.05906        39.87106                                                                
R22  20372804.20124     77755.33924     -3776.56824        25.08224
R13  19175820.15614     23191.31514     -1115.44914        27.01914
R23  19484422.91525    -12066.36425       573.31925        31.80825
C11  22367843.56405     55742.39705     -2818.86905        34.05205                                                                
C23  22556487.66906   1413803.24306     -2691.33706        40.33306  22556308.99205     44352.40405     -2027.98705        31.12605
C28  23745366.82524    -32712.93224      1759.49324        26.89124  23745169.86104    -23805.40604      1325.03104        27.02704
C34  24015168.34526     61692.93026     -3718.87626        35.94126  24015148.25924     50138.25024     -2802.35424        23.75024
C37  23036894.59025     -6840.78125       514.48525        31.30125                                                                
C43  21601947.58325     27335.08325     -1328.14625        31.82525  21601757.21504     20890.11504     -1000.82604        26.00804
E02  23509190.92605     38868.59405     -1983.40405        30.67705  23509014.64805     30864.02605     -1481.22405        32.12905
E30  24437661.95924    -12606.59224       711.66224        23.74124                                                                
E34  25484044.96315    -30022.89115      1814.21615        29.79515  25483868.38504    -22431.94004      1355.02604        29.39504
E36  23716562.46504     12710.46104      -735.02804        27.27304                                                                
> 2023 07 14 05 57 12.9995848  0 18                      
G16  21838319.24623    -21886.50823      1662.79623        17.73523                                                                
G18  21158779.98105    -15572.42305       739.60805        35.19005  21158600.40605    -11648.46705       552.61805        32.97305
G26  20274081.34605      7256.56805      -345.54005        35.20505  20273904.16806      6286.98106      -258.38906        37.48706
G29  22076195.86805     78895.08505     -3622.58105        31.74305                                                                
G31  21747089.40306     68153.65806     -3140.62406        36.37506                                                                
R22  20373357.61824     81530.28924     -3781.35624        28.49524
R13  19175839.64224     24307.51024     -1116.18324        28.54124
R23  19484102.13725    -12638.78825       572.23225        34.31025
C11  22368174.23505     58562.09305     -2818.95305        33.92605                                                                
C23  22556795.25606   1416495.14006     -2691.93406        41.31606  22556615.68005     46380.97905     -2028.60205        32.94405
C28  23744811.30924    -34470.43524      1755.34324        25.65724  23744622.74004    -25130.00304      1324.87304        25.14204
C34  24015671.09726     65412.38926     -3718.80326        36.03626  24015651.91024     52941.22824     -2802.61924        23.72924
C37  23036587.60225     -7355.08225       514.19925        31.12325                                                                
C43  21601993.75125     28663.59525     -1328.91825        34.18525  21601803.98204     21891.32504     -1001.32704        27.45104
E02  23509353.41305     40852.63305     -1984.31905        30.82705  23509178.93405     32345.63605     -1481.54205        31.75905
E30  24437317.19703    -13318.00103       711.16303        22.81303                                                                
E34  25483494.54414    -31836.73314      1814.45214        27.93414  25483314.06904    -23786.45104      1354.84704        28.43904
E36  23716493.21304     13446.32004      -735.21104        25.84204                                                                
> 2023 07 14 05 57 13.9995842  0 19                      
G05  23703591.04522     12859.30322      -783.41322        16.59722                                                                
G16  21837817.99322    -23566.09222      1658.53622        17.18722                                                                
G18  21158455.00605    -16311.48605       738.64505        35.31705  21158281.72605    -12200.28805       551.05205        32.55405
G26  20273968.32405      7603.54305      -347.91805        34.85605  20273789.04806      6546.01406      -259.45606        37.20806
G29  22076699.21905     82519.16105     -3624.66505        31.25705                                                                
G31  21747501.01805     71293.63005     -3140.02705        34.14605                                                                
R22  20373903.54025     85312.71025     -3783.01725        30.45625
R13  19175878.61524     25424.63024     -1117.66624        29.31424
R23  19483808.94025    -13210.45725       571.21425        34.78525
C11  22368537.58405     61382.20405     -2820.68805        33.44305                                                                
C23  22557132.52206   1419187.57606     -2692.95206        41.05306  22556952.94605     48410.07305     -2029.56905        33.58205
C28  23744304.36024    -36227.70124      1757.38124        25.35624  23744104.99804    -26454.22204      1323.81404        24.90704
C34  24016208.32526     69132.09226     -3720.18426        37.77626  24016185.24123     55744.33323     -2803.47623        23.04123
C37  23036309.69525     -7868.85625       513.27325        30.91825                                                                
C43  21602068.09925     29992.61325     -1329.27825        34.52425  21601878.33104     22892.76604     -1001.21004        27.10404
E02  23509548.27805     42837.01505     -1984.57905        30.60705  23509380.09505     33827.47005     -1482.12405        32.58305
E30  24437003.01504    -14028.98604       710.73704        24.40304                                                                
E34  25482966.31004    -33650.16204      1812.86604        28.13004  25482788.83204    -25140.74904      1354.78804        28.65304
E36  23716456.63904     14182.74804      -737.27904        26.78804                                                                
> 2023 07 14 05 57 14.9995836  0 17                      
G18  21158139.32505    -17049.61805       737.79205        35.48305  21157960.94805    -12751.53705       550.99805        32.69005
G26  20273852.00406      7951.00206      -348.25506        35.77106  20273676.02606      6805.61506      -259.99106        38.26406
G29  22077211.26505     86143.76005     -3624.83605        31.43405                                                                
G31  21747919.52906     74434.71806     -3141.22206        37.51906                                                                
R22  20374444.06614     89095.86714     -3784.10614        28.52714
R13  19175893.00624     26542.68324     -1121.01324        28.09324
R23  19483532.83115    -13781.35915       571.04615        32.76215
C11  22368897.03505     64202.85705     -2820.73805        33.83605                                                                
C23  22557467.39006   1421880.77306     -2693.58606        40.10706  22557289.91305     50439.67205     -2030.03005        32.27205
C28  23743780.92324    -37984.39924      1757.44624        25.45424  23743587.25704    -27778.10004      1323.11804        25.83804
C34  24016739.25726     72852.15426     -3720.75626        37.20226  24016719.77124     58547.77524     -2803.68224        23.75724
C37  23036030.58825     -8381.83525       512.41025        30.76725                                                                
C43  21602141.54905     31322.96305     -1329.71605        34.95505  21601951.18024     23894.93424     -1003.21624        23.82124
E02  23509748.24004     44822.14904     -1984.68804        28.74904  23509577.65805     35309.86005     -1482.63205        32.08305
E30  24436688.53303    -14739.55503       710.38803        22.23203                                                                
E34  25482441.97305    -35463.24905      1812.93605        30.14705  25482264.19605    -26494.45205      1353.58505        29.70805
E36  23716411.97004     14919.76704      -737.78104        26.40404                                                                
> 2023 07 14 05 57 15.9995829  0 17                      
G18  21157788.56806    -17786.72006       737.02806        35.70506  21157609.89105    -13301.99705       550.52505        31.79005
G26  20273706.60506      8299.70906      -348.79506        36.64306  20273532.42606      7066.00206      -260.40706        37.87006
G29  22077694.23005     89769.06705     -3625.05005        32.23505                                                                
G31  21748315.55406     77576.56506     -3142.20006        39.54606                                                                
R22  20374889.85724     92879.73824     -3783.51324        25.01824
R13  19175872.62014     27662.31614     -1122.17214        27.08214
R23  19483195.86425    -14350.95525       568.61125        29.56225
C11  22369226.20705     67024.36805     -2821.71005        34.66205                                                                
C23  22557777.07606   1424574.89406     -2694.28206        39.98506  22557597.80005     52469.97605     -2030.51505        31.10005
C28  23743232.00324    -39740.52124      1759.08024        24.49024  23743041.33504    -29101.43804      1323.30304        26.82604
C34  24017401.49906     76573.33506     -3720.31506        36.72906  24017224.32224     61351.72824     -2803.67924        24.28924
C37  23035872.89705     -8893.42105       511.81605        30.01005                                                                
C43  21602190.41505     32653.68705     -1330.81705        35.31105  21601998.84713     24897.86513     -1001.83513        22.63613
E02  23509920.92004     46808.03004     -1985.92504        27.54404  23509747.34105     36792.75805     -1482.81505        31.74405
E30  24436344.67123    -15449.10023       710.76623        21.30623                                                                
E34  25481881.96005    -37275.44305      1811.99405        30.64905  25481709.28005    -27847.80205      1353.79705        29.81205
E36  23716346.01504     15657.83904      -738.58904        27.88504                                                                
> 2023 07 14 05 57 16.9995823  0 18                      
G18  21157471.38706    -18523.80206       736.90706        35.71506  21157289.11405    -13852.38905       550.09605        31.81005
G26  20273592.38406      8648.32206      -348.75106        36.66106  20273419.10406      7326.33006      -260.45906        38.25106
G29  22078204.47705     93394.01005     -3624.80805        32.74105                                                                
G31  21748727.16906     80718.36406     -3142.26906        39.96906                                                                
R22  20375414.79423     96664.52723     -3782.59223        22.97323
R13  19175919.38714     28781.77614     -1120.02614        26.13614
R23  19482942.24014    -14920.08114       569.03214        27.20314
C11  22369589.25605     69845.58005     -2821.28805        34.97205                                                                
C23  22558113.74306   1427268.90206     -2694.22406        39.60206  22557935.66605     54500.16105     -2029.92605        30.11905
C25  25445624.46123     29596.66123     -4421.64123        20.72423                                                                
C28  23742717.85823    -41496.61923      1753.58823        22.84223  23742523.59304    -30425.05304      1323.38804        27.37204
C34  24017932.73106     80293.76706     -3720.38506        36.28406  24017758.55224     64155.44224     -2803.19624        24.91224
C37  23035595.88905     -9405.69805       512.10105        30.33205                                                                
C43  21602265.36305     33984.24705     -1330.62205        35.34905  21602074.69523     25900.38123     -1000.54223        23.30823
E02  23510123.28004     48793.50304     -1985.07304        26.94804  23509946.10305     38275.49405     -1482.73505        31.88405
E30  24436029.58923    -16158.82223       710.73023        19.20223                                                                
E34  25481354.32505    -39088.09605      1812.84805        31.18705  25481184.04305    -29201.25905      1353.07505        29.70405
E36  23716307.94204     16395.75404      -738.03904        27.62304                                                                
> 2023 07 14 05 57 17.9995816  0 17                      
G18  21157119.73106    -19260.31306       736.14606        35.85406  21156938.05705    -14402.38905       549.79705        31.63805
G26  20273448.18406      8997.49006      -349.55906        36.89606  20273274.90406      7587.04806      -260.83006        38.01306
G29  22078680.54805     97019.32505     -3625.24205        32.21605                                                                
G31  21749120.19706     83860.65206     -3142.37306        39.10706                                                                
R22  20375909.45123    100448.94123     -3783.07123        21.08323
R13  19175908.89524     29901.57624     -1116.51624        26.14024
R23  19482604.37424    -15488.71224       568.76124        28.41424
C11  22369920.22605     72667.17505     -2821.71105        34.75805                                                                
C23  22558421.33006   1429963.31106     -2694.62906        40.10706  22558243.55305     56530.72805     -2030.49405        30.62705
C25  25446258.52223     34021.33023     -4422.58423        20.20423                                                                
C28  23742169.23823    -43252.80823      1754.33223        23.30623  23741977.67104    -31748.48204      1323.18204        26.56204
C34  24018439.98006     84014.34206     -3720.45206        36.23306  24018263.70224     66959.26824     -2803.26724        25.13724
C37  23035286.50304     -9917.50304       511.56204        29.40504                                                                
C43  21602313.92906     35315.22006     -1331.37206        35.90206  21602119.96424     26903.41824     -1002.93924        23.52824
E02  23510291.76404     50779.54204     -1986.28804        26.00204  23510114.28705     39758.47905     -1483.05805        30.88605
E34  25480801.20805    -40900.34305      1811.57605        30.98605  25480629.72705    -30554.71105      1353.71905        29.57605
E36  23716239.88904     17134.18304      -738.94104        27.16004                                                                
> 2023 07 14 05 57 18.9995810  0 17                      
G18  21156797.75406    -19996.15506       735.63006        35.80606  21156616.97905    -14951.80705       548.99605        31.21305
G26  20273336.96106      9347.25706      -349.89506        37.30006  20273161.88206      7848.28406      -261.59606        38.16406
G29  22079189.59505    100645.02505     -3625.74105        32.26105                                                                
G31  21749538.70806     87003.64006     -3143.33606        39.11006                                                                
R22  20376436.48724    104234.46124     -3784.39624        23.59124
R13  19175937.97414     31023.13414     -1121.52614        26.91514
R23  19482325.86625    -16056.41725       567.65625        29.96625
C11  22370281.77605     75489.23205     -2822.12305        34.96905                                                                
C23  22558759.79606   1432658.30006     -2695.13606        40.44406  22558580.81905     58561.67605     -2031.12105        31.19405
C25  25446926.45923     38440.56823     -4424.19723        22.10323                                                                
C28  23741650.89724    -45008.66224      1754.62124        24.46724  23741460.82904    -33071.58504      1322.86604        26.50104
C34  24018970.01306     87735.24306     -3720.94906        35.60506  24018798.53224     69763.31024     -2803.24624        23.67524
C37  23035007.99624    -10429.25424       510.99024        27.82724                                                                
C43  21602388.27806     36646.70806     -1331.73306        36.44106  21602194.91223     27906.94323     -1004.04823        22.97723
E02  23510486.62904     52765.92304     -1987.81504        24.00104  23510311.55005     41241.72605     -1483.25505        30.06405
E34  25480275.07305    -42712.37405      1811.62805        31.00205  25480103.89104    -31907.84504      1353.09504        29.11204
E36  23716206.01204     17873.25104      -739.71504        26.71504                                                                
> 2023 07 14 05 57 19.9995804  0 17                      
G18  21156479.37406    -20731.04506       734.85406        35.65006  21156296.80005    -15500.60305       548.33505        31.06005
G26  20273225.43806      9697.87406      -350.68906        37.38206  20273049.16006      8110.10206      -262.22806        38.03306
G29  22079701.94005    104271.25905     -3626.36905        32.23005                                                                
G31  21749962.91406     90147.45806     -3144.01306        38.86806                                                                
R22  20376959.02524    108023.07824     -3785.85424        25.05824
R13  19175979.04624     32145.57024     -1122.38124        28.01724
R23  19482236.52825    -16622.93025       566.22125        30.93725
C11  22370645.42405     78311.89305     -2822.44505        35.02305                                                                
C23  22559100.36006   1435354.10506     -2695.58306        40.85906  22558918.38605     60593.27305     -2031.65005        31.34005
C25  25447596.19623     42863.53623     -4425.22723        22.74323                                                                
C28  23741133.45524    -46763.77024      1755.52124        24.48524  23740943.38704    -34394.24804      1322.62204        27.02804
C34  24019509.34006     91456.67006     -3721.78006        35.65306  24019332.46223     72567.85523     -2804.71423        23.17023
C37  23034729.18924    -10939.74224       510.02924        26.52824                                                                
C43  21602463.82506     37979.01906     -1332.17206        36.65406  21602271.35923     28910.98923     -1004.54823        21.94623
E02  23510688.68923     54752.43823     -1986.63523        21.36123  23510508.21404     42725.57404     -1483.83304        29.07004
E34  25479749.53605    -44523.80605      1811.39805        30.54205  25479579.55404    -33260.51404      1352.88804        28.71304
E36  23716170.33704     18613.07004      -740.26104        26.97004                                                                
> 2023 07 14 05 57 20.9995796  0 18                      
G18  21156128.01705    -21465.67305       733.93705        35.08405  21155946.34305    -16049.20605       548.16105        29.95205
G26  20273082.43706     10048.75106      -350.96706        36.96006  20272907.05806      8371.99506      -261.84306        37.63706
G29  22080182.80805    107897.37905     -3625.89705        31.67805                                                                
G31  21750352.64406     93291.47906     -3144.01506        36.95206                                                                
R22  20377460.57824    111811.64624     -3786.94624        24.41024
R13  19175976.94724     33268.50924     -1123.78024        28.92724
R23  19481923.54525    -17189.16625       566.01225        34.69425
C11  22370976.39505     81134.59105     -2822.86705        34.53505                                                                
C23  22559406.44806   1438050.03606     -2696.20006        40.95406  22559226.27305     62624.89605     -2031.78205        32.60505
C25  25448236.55223     47289.15623     -4424.54723        22.30623                                                                
C28  23740584.83524    -48519.15924      1756.18024        25.32824  23740397.76504    -35717.14904      1323.74704        26.59104
C34  24020015.09005     95177.82705     -3721.61405        34.41205  24019837.31323     75371.80123     -2804.29023        21.45223
C37  23034416.20524    -11450.09524       513.08024        25.57524                                                                
C43  21602509.99406     39311.40006     -1332.74206        36.21206  21602317.82724     29915.09524     -1003.79524        25.41624
E02  23510855.37423     56739.50123     -1987.41223        23.33023  23510675.79804     44209.32204     -1484.25504        28.71504
E30  24434703.90623    -18938.94223       710.25223        18.66323                                                                
E34  25479196.71905    -46335.28905      1811.14505        29.75405  25479025.23804    -34613.32404      1352.70404        28.21304
E36  23716101.68404     19352.96104      -739.73804        26.70704                                                                
> 2023 07 14 05 57 21.9995791  0 19                      
G16  21833769.89613    -36809.55713      1655.47513        23.39413                                                                
G18  21155811.13705    -22200.28305       734.67705        34.99305  21155626.46505    -16597.79305       548.73505        30.52105
G26  20272972.71306     10399.56906      -350.53806        37.07206  20272793.43706      8634.05006      -262.05006        38.21306
G29  22080690.35605    111523.37305     -3625.35705        32.26805                                                                
G31  21750772.05405     96435.50405     -3144.02205        34.69705                                                                
R22  20377995.40723    115598.54523     -3787.84023        23.10923
R13  19176013.82225     34391.70525     -1123.06225        29.99125
R23  19481644.43826    -17755.04226       565.80626        36.06826
C11  22371339.14405     83957.21805     -2822.47405        35.15805                                                                
C23  22559746.41306   1440745.90906     -2695.55006        41.42806  22559564.13905     64656.53805     -2031.37005        32.36105
C25  25448906.88823     51714.63323     -4424.09023        22.24723                                                                
C28  23740065.59524    -50274.54524      1755.08824        25.71124  23739879.12404    -37040.01504      1323.74704        26.66604
C34  24020547.82125     98898.33725     -3720.66025        31.34425                                                                
C37  23034141.29624    -11960.56424       514.92124        23.61824                                                                
C43  21602587.34006     40643.80506     -1332.35706        35.63706  21602393.97424     30919.12524     -1004.38624        24.82624
E02  23511049.63923     58726.39723     -1986.98723        20.42423  23510871.26304     45692.82504     -1483.56004        27.25304
E30  24434385.82723    -19649.57023       710.24623        18.56223                                                                
E34  25478672.68204    -48147.13404      1811.87304        29.46404  25478501.50004    -35966.23404      1353.13704        28.65904
E36  23716066.30904     20093.00304      -740.12404        27.35904                                                                
> 2023 07 14 05 57 22.9995785  0 19                      
G16  21833289.32824    -38462.72124      1653.95424        24.17624                                                                
G18  21155487.66105    -22934.71405       735.03805        34.80405  21155306.88605    -17146.19805       548.64905        30.71905
G26  20272857.29306     10750.48306      -350.73606        37.31806  20272679.81606      8896.06106      -261.72906        38.24706
G29  22081198.50405    115149.17005     -3625.07005        32.26405                                                                
G31  21751190.86406     99579.62306     -3143.73506        35.56606                                                                
R22  20378520.94424    119383.58524     -3785.86724        26.91524
R13  19176052.19524     35515.29824     -1123.40324        29.49324
R23  19481351.84125    -18320.63925       565.66625        34.96325
C11  22371700.69405     86779.65805     -2822.02805        35.44605                                                                
C23  22560083.97907   1443441.87007     -2695.79607        41.65507  22559902.60405     66688.15005     -2031.05705        31.53305
C25  25449578.12423     56139.56223     -4424.49823        22.07723                                                                
C28  23739533.16324    -52030.09324      1753.59024        24.84224  23739362.88104    -38362.99404      1323.05804        26.52604
C34  24021079.65325    102619.00525     -3719.99625        30.63125                                                                
C37  23033861.58923    -12470.60123       514.49723        22.77623                                                                
C43  21602664.68606     41976.18106     -1332.06706        35.52606  21602470.42124     31923.21224     -1004.42324        23.82724
E02  23511244.20423     60712.69923     -1986.58923        18.96623  23511066.72704     47176.32604     -1482.33204        27.35704
E30  24434075.24223    -20360.00423       710.26223        19.02623                                                                
E34  25478149.24404    -49959.14704      1813.14604        29.20604  25477975.66405    -37319.37905      1353.83305        29.60105
E36  23716021.04004     20832.93804      -739.81504        27.47704  23715845.96123     15012.49823      -551.40023        21.39423
> 2023 07 14 05 57 23.9995778  0 19                      
G16  21832764.39224    -40118.07124      1652.76024        24.96424                                                                
G18  21155139.60205    -23668.57405       733.60105        34.46405  21154958.22705    -17694.23205       547.85505        32.02205
G26  20272720.58806     11101.81306      -351.65306        37.82706  20272536.51506      9158.43006      -262.41706        38.53606
G29  22081676.07405    118775.04305     -3626.16205        33.38305                                                                
G31  21751576.09706    102724.28706     -3145.07206        36.52206                                                                
R22  20379042.58224    123170.28824     -3787.32124        29.07324
R13  19176041.70324     36639.61924     -1125.06424        29.35224
R23  19481037.95825    -18885.68225       564.78325        33.78625
C11  22372029.56605     89602.31905     -2822.69705        35.20605                                                                
C23  22560391.26607   1446138.16907     -2696.62307        41.97407  22560209.89205     68720.14305     -2031.73705        30.17005
C25  25450218.48023     60564.59923     -4423.65123        21.06423                                                                
C28  23738991.43824    -53786.06824      1756.95624        27.61524  23738813.96104    -39686.01104      1323.16904        25.51804
C34  24021584.50325    106339.79825     -3720.72625        29.90225  24021413.32223     83776.04923     -2802.53423        22.86823
C37  23033551.60423    -12979.20823       513.80123        20.71123                                                                
C43  21602706.05806     43308.91806     -1333.04706        35.50506  21602517.18923     32927.50223     -1004.55923        21.69223
E02  23511418.68423     62699.10223     -1987.38823        21.97623  23511234.31104     48660.10004     -1483.52704        26.77004
E30  24433731.38023    -21068.39223       709.27223        19.11223                                                                
E34  25477593.12905    -51770.82705      1810.45405        31.32805  25477423.14705    -38672.38005      1353.48805        30.46305
E36  23715955.98504     21573.25304      -740.18504        28.41004  23715778.80823     15565.23523      -553.67323        21.29723
> 2023 07 14 05 57 24.9995772  0 19                      
G16  21832276.92914    -41772.32814      1653.79714        26.47914                                                                
G18  21154820.92205    -24401.83105       733.12805        34.33805  21154638.34905    -18241.72205       547.27105        31.24405
G26  20272605.16706     11453.70206      -351.82106        38.13606  20272423.79306      9421.33206      -263.06406        38.74206
G29  22082185.72105    122401.22105     -3625.39405        33.59805                                                                
G31  21751993.40806    105869.49806     -3145.34306        37.78006                                                                
R22  20379582.80825    126957.82825     -3787.21325        29.93125
R13  19176066.28624     37764.79024     -1125.64424        28.13624
R23  19480748.95825    -19449.74025       563.65125        33.90925
C11  22372395.01306     92425.42206     -2822.74106        35.54506                                                                
C23  22560733.62907   1448835.04807     -2697.24707        41.72207  22560548.05805     70752.56305     -2032.22305        30.14905
C25  25450889.41623     64989.77723     -4423.63423        21.31223                                                                
C28  23738476.09524    -55541.15024      1754.38624        26.93324  23738297.11904    -41008.56004      1322.08804        26.15404
C34  24022116.63524    110060.87924     -3720.82524        29.49324  24021950.25023     86579.94023     -2802.95223        22.20123
C37  23033273.39723    -13484.74123       512.09523        21.10823                                                                
C43  21602784.90305     44642.17905     -1333.42205        35.24805  21602593.03623     33931.96823     -1004.25123        21.77423
E02  23511618.64523     64686.73723     -1987.34723        19.53923  23511429.17604     50144.19604     -1484.22904        26.16504
E30  24433418.09723    -21778.41623       709.27223        19.15623                                                                
E34  25477066.99405    -53582.40605      1811.48205        30.70605  25476897.31105    -40024.99505      1353.04805        29.84905
E36  23715918.81104     22314.20704      -741.15004        28.14704  23715738.93623     16118.54023      -552.69623        22.86523
> 2023 07 14 05 57 25.9995765  0 19                      
G16  21831743.29923    -43426.22823      1650.51123        23.15223                                                                
G18  21154470.46505    -25134.64805       732.23405        33.66605  21154288.49105    -18789.02205       546.84605        31.40705
G26  20272457.07006     11805.96906      -352.50706        39.04806  20272280.79206      9684.42206      -263.27806        38.79706
G29  22082667.78705    126027.53505     -3626.32305        32.08205                                                                
G31  21752378.94106    109015.10706     -3146.11406        41.10406                                                                
R22  20380069.07225    130745.60225     -3788.33825        31.18025
R13  19176091.76814     38890.85914     -1127.52614        27.32314
R23  19480439.57225    -20013.35825       563.65925        32.68125
C11  22372727.48305     95248.57305     -2823.10705        33.41605                                                                
C23  22561034.32106   1451532.17406     -2697.29506        40.87706  22560856.84405     72785.18605     -2032.80705        31.33105
C25  25451524.97622     69414.97522     -4421.91622        16.38322                                                                
C28  23737931.67224    -57296.23424      1753.42424        25.85324  23737749.69804    -42331.16504      1322.59904        26.52904
C34  24022628.38025    113781.87125     -3720.73925        34.03225  24022459.59723     89383.48923     -2804.21323        21.44323
C37  23032965.51023    -13994.16123       511.26123        21.61223                                                                
C43  21602821.77805     45975.70005     -1333.58605        34.60805  21602637.70524     34937.08224     -1004.53924        23.89924
E02  23511789.52723     66673.82223     -1987.16423        22.80923  23511605.75405     51628.34505     -1484.04305        29.86805
E30  24433059.84504    -22487.38104       708.84004        24.72804                                                                
E34  25476514.17624    -55393.69824      1810.83024        29.48724  25476342.09505    -41377.59705      1352.24305        29.66005
E36  23715833.37004     23055.43504      -741.15304        28.54304  23715669.98323     16672.07923      -554.18123        21.40723
> 2023 07 14 05 57 26.9995759  0 20                      
G16  21831250.14023    -45076.41323      1650.98523        21.84023                                                                
G18  21154153.28405    -25867.17905       732.50105        32.02505  21153971.31005    -19335.96605       546.44505        32.79305
G20  24618786.06924     76527.00824     -2610.75924        25.70424                                                                
G26  20272347.94606     12158.56606      -352.83706        40.87106  20272168.07006      9947.71006      -263.46206        38.66506
G29  22083185.22905    129653.97205     -3626.68505        31.68105                                                                
G31  21752798.05107    112160.97507     -3146.26207        42.09407                                                                
R22  20380612.59515    134533.70815     -3790.37415        30.13715
R13  19176120.54824     40014.31624     -1124.45624        25.21124
R23  19480168.56024    -20576.32124       562.44424        28.45724
C11  22373096.52805     98072.05905     -2823.73205        32.17905                                                                
C23  22561376.68406   1454229.52706     -2697.67406        39.54606  22561195.90905     74817.83805     -2032.62405        31.79405
C25  25452180.62222     73842.10622     -4422.51022        15.54222                                                                
C28  23737405.53624    -59053.57324      1751.25124        23.84224  23737233.45504    -43653.65004      1321.46304        26.22904
C34  24023166.50805    117503.45105     -3721.44405        34.55305                                                                
C37  23032686.40323    -14503.26023       509.10923        20.84523                                                                
C43  21602894.62705     47309.41005     -1334.16005        34.34005  21602712.95324     35942.28624     -1005.45424        24.27924
E02  23511986.79004     68661.58404     -1987.72704        25.86004  23511804.21705     53112.55805     -1484.13805        31.39005
E30  24432746.56224    -23197.71224       709.08724        25.16324                                                                
E34  25475986.24224    -57205.25124      1812.11324        28.37024  25475818.65804    -42730.22504      1352.11804        29.23804
E36  23715804.59004     23796.93404      -741.76204        28.42704                                                                
> 2023 07 14 05 57 27.9995753  0 20                      
G16  21830756.38224    -46722.52024      1651.49124        23.75024                                                                
G18  21153832.20705    -26599.37405       732.00705        34.00205  21153652.33105    -19882.77805       546.52205        31.86105
G20  24619092.45724     79139.50524     -2614.46724        26.38924                                                                
G26  20272232.82506     12511.42606      -353.06106        39.44206  20272055.64806     10211.17806      -263.50906        38.60706
G29  22083689.78005    133280.22905     -3625.94105        31.38405                                                                
G31  21753217.16106    115307.11906     -3146.25006        41.15106                                                                
R22  20381134.83425    138321.97525     -3788.62425        30.21425
R13  19176171.81224     41141.66624     -1123.93224        26.65624
R23  19479869.66725    -21139.14325       562.22925        31.02125
C11  22373455.67905    100895.41605     -2823.36705        32.90905                                                                
C23  22561714.55006   1456927.08206     -2697.95606        41.30106  22561532.27605     76850.75805     -2033.38405        30.99205
C25  25452837.16722     78255.49922     -4423.41722        15.52022                                                                
C28  23736889.59323    -60810.81423      1750.84923        22.06223  23736716.31304    -44976.37404      1322.27604        26.41804
C34  24023698.34005    121224.38305     -3721.37005        33.77005                                                                
C37  23032409.09523    -15011.79723       506.80723        20.12523                                                                
C43  21602971.37405     48643.25605     -1334.05405        34.63205  21602788.80123     36947.51323     -1006.32623        22.78823
E02  23512186.75204     70649.09304     -1987.48304        24.28504  23512003.57905     54596.80005     -1484.66305        30.81005
E30  24432431.77904    -23906.52204       708.60904        24.33904                                                                
E34  25475462.20514    -59016.45914      1811.04414        26.15214  25475292.82204    -44082.83204      1351.98804        29.17804
E36  23715760.82004     24538.53304      -741.39104        28.25804                                                                
> 2023 07 14 05 57 28.9995746  0 19                      
G16  21830233.24423    -48370.57823      1652.87823        18.86123                                                                
G18  21153483.84805    -27331.13205       731.18105        32.25705  21153303.37305    -20429.13205       545.64205        32.09705
G20  24619389.55124     81751.36424     -2617.07924        25.53924                                                                
G26  20272091.02306     12864.63906      -353.17606        40.64806  20271912.34706     10474.88006      -263.61006        38.50106
G29  22084173.04505    136906.65405     -3626.41605        32.73805                                                                
G31  21753605.99207    118453.68107     -3146.91907        42.04107                                                                
R22  20381628.59225    142110.57425     -3788.53025        29.64625
R13  19176152.62624     42262.66824     -1126.80824        23.84724
R23  19479551.88715    -21701.29315       560.54115        29.98715
C11  22373792.64605    103719.04505     -2823.36205        31.90205                                                                
C23  22562020.03906   1459625.02406     -2697.95606        39.94906  22561841.06205     78883.88705     -2033.29105        30.45305
C28  23736347.56923    -62563.54823      1751.83023        21.24023  23736170.39104    -46298.81204      1322.16304        27.10404
C34  24024204.68905    124944.99705     -3719.50705        32.65305                                                                
C37  23032102.70724    -15520.31024       508.64424        25.01724                                                                
C43  21603011.24705     49977.52205     -1334.01405        33.67905  21602834.96923     37951.87023     -1005.56423        21.34823
E02  23512355.53504     72636.83204     -1987.93704        26.09604  23512173.26105     56081.16905     -1485.08205        30.96905
E30  24432087.61804    -24615.70104       709.09604        27.53104                                                                
E34  25474903.09214    -60827.98014      1812.49314        26.96214  25474738.20605    -45435.50705      1352.57305        29.60605
E36  23715689.77004     25280.53404      -741.67804        28.57604                                                                
> 2023 07 14 05 57 29.9995740  0 18                      
G18  21153165.16805    -28061.96405       730.50505        32.66905  21152983.49405    -20974.96805       545.33305        30.81105
G20  24619705.53324     84362.04424     -2613.49124        25.04024                                                                
G26  20271981.00006     13218.65506      -354.10806        40.04006  20271800.52506     10739.23406      -264.42206        37.52306
G29  22084684.49105    140533.70405     -3627.21305        30.32405                                                                
G31  21754024.20206    121601.00106     -3147.56106        40.06906                                                                
R22  20382160.12424    145900.11724     -3789.59724        29.01124
R13  19176171.51324     43390.94524     -1129.55224        26.77324
R23  19479261.38825    -22262.28825       560.67725        31.72725
C11  22374154.19505    106543.22605     -2824.15205        33.36305                                                                
C23  22562358.50406   1462323.59406     -2698.76806        40.90106  22562178.62905     80917.50405     -2033.73805        33.29305
C28  23735830.12723    -64320.18523      1753.85523        22.87723  23735654.74804    -47620.93204      1321.96504        27.55804
C34  24024735.92125    128666.16025     -3722.00425        32.47325  24024562.34223    100598.45123     -2804.08323        21.61223
C37  23031839.78924    -16027.20924       509.67124        25.07924                                                                
C43  21603087.69405     51312.38805     -1335.05705        34.38705                                                                
E02  23512551.00004     74625.21004     -1988.76204        26.84304  23512369.02605     57565.96405     -1485.06805        29.98205
E30  24431770.43704    -25324.21804       708.60404        26.05504                                                                
E34  25474377.55505    -62638.66405      1810.68105        29.88505  25474214.16905    -46787.62105      1351.87705        29.59805
E36  23715651.69604     26023.31204      -742.67704        28.14604                                                                
> 2023 07 14 05 57 30.9995733  0 18                      
G18  21152811.71305    -28792.05705       729.68105        32.57105  21152634.83605    -21520.21705       545.13405        30.72805
G20  24619995.43224     86967.68924     -2610.55224        24.02424                                                                
G26  20271836.50006     13573.33106      -354.61406        40.34506  20271657.82306     11004.06406      -264.68406        37.43906
G29  22085158.76324    144159.91124     -3626.18924        28.79324                                                                
G31  21754413.63306    124748.97606     -3148.05906        40.35006                                                                
R22  20382657.78025    149690.17425     -3790.22525        31.96425
R13  19176171.51314     44520.59714     -1129.31314        26.76014
R23  19478944.20825    -22822.50725       559.79425        31.60225
C11  22374491.16205    109367.98905     -2824.80905        34.88705                                                                
C23  22562665.49206   1465022.77806     -2699.32406        39.90106  22562486.21605     82951.65205     -2034.23905        32.69305
C28  23735287.20323    -66074.38723      1753.04423        18.11823  23735107.62704    -48942.77504      1321.93504        27.65204
C34  24025238.37425    132387.82725     -3721.73625        34.29725  24025064.79423    103403.11423     -2804.83523        23.30123
C37  23031521.11024    -16534.48624       504.17824        25.03924                                                                
C43  21603132.96205     52647.87105     -1335.75405        33.66005                                                                
E02  23512721.58204     76613.99904     -1989.25404        28.21904  23512538.70805     59051.12905     -1485.69305        30.07905
E30  24431436.76804    -26032.51104       709.16904        25.67804                                                                
E34  25473826.23704    -64449.07104      1810.38904        29.35404  25473660.15204    -48139.64304      1351.87504        28.86804
E36  23715580.04604     26766.71804      -743.83304        26.61504                                                                
> 2023 07 14 05 57 31.9995727  0 19                      
G16  21828742.67622    -53339.40122      1652.68222        17.18722                                                                
G18  21152490.93505    -29521.67005       729.09305        32.68605  21152315.85605    -22065.03805       544.68305        31.34905
G20  24620296.12424     89574.71624     -2614.43824        25.31824                                                                
G26  20271723.77806     13928.44706      -355.17606        40.13606  20271546.60006     11269.33706      -265.61106        37.50706
G29  22085670.20925    147787.61225     -3627.77525        29.70825                                                                
G31  21754827.94606    127897.44506     -3148.57806        39.24006                                                                
R22  20383190.51125    153480.77625     -3790.98625        29.95825
R13  19176190.99914     45650.95714     -1129.60114        26.41814
R23  19478665.70025    -23382.03325       559.63125        32.12525
C11  22374855.71005    112192.98205     -2825.50605        34.51705                                                                
C23  22563005.45606   1467722.42806     -2699.83206        40.48506  22562826.18005     84986.08605     -2034.65305        33.82305
C28  23734777.85523    -67826.83123      1757.87123        19.76123  23734591.08504    -50264.30604      1321.01304        27.98104
C34  24025772.60425    136109.76325     -3721.85425        32.54125  24025600.22324    106207.90724     -2805.13524        25.25124
C37  23031251.29724    -17040.73324       504.07224        25.96024                                                                
C43  21603210.90805     53983.74505     -1336.52905        32.73305                                                                
E02  23512920.34404     78603.04104     -1989.65304        28.97604  23512736.57105     60536.47305     -1485.85405        30.21505
E30  24431124.08504    -26740.42504       708.43304        26.28504                                                                
E34  25473300.10114    -66259.28814      1810.24014        28.44714  25473135.51504    -49491.52104      1352.59304        28.48204
E36  23715541.07304     27510.47204      -744.20604        28.07704                                                                
> 2023 07 14 05 57 32.9995721  0 19                      
G16  21828258.81123    -54987.17223      1652.68223        18.08323                                                                
G18  21152173.45505    -30250.62005       728.88405        31.67905  21151997.77705    -22609.41905       544.43705        32.03605
G20  24620606.40924     92190.11224     -2616.49624        24.25224                                                                
G26  20271612.85406     14284.21906      -356.00506        38.62706  20271432.67906     11534.96906      -265.97006        37.28606
G29  22086175.65925    151415.61525     -3628.19925        30.50225                                                                
G31  21755251.25306    131046.53206     -3149.67506        36.92306                                                                
R22  20383732.83525    157272.00825     -3791.46825        29.84525
R13  19176229.67224     46782.18824     -1134.66124        26.48824
R23  19478384.49525    -23940.59625       558.18725        34.68925
C11  22375217.55905    115018.41705     -2825.82705        34.22105                                                                
C23  22563344.22206   1470422.59506     -2700.96306        40.65906  22563164.94605     87020.93805     -2034.84905        34.04205
C28  23734267.00923    -69586.06523      1756.02623        21.33423  23734074.24204    -51585.89104      1321.66604        27.00904
C34  24026311.93005    139832.41605     -3722.28705        32.01705  24026135.65224    109013.03824     -2804.71724        24.76424
C37  23030976.08724    -17547.15424       504.24224        26.41424                                                                
C43  21603287.65505     55320.09705     -1336.58105        32.78705                                                                
E02  23513119.40604     80592.49204     -1990.09504        28.06404  23512936.23305     62022.09305     -1485.99505        31.06805
E30  24430810.20204    -27447.96404       707.10504        28.48504                                                                
E34  25472773.06614    -68069.14414      1809.41514        27.94614  25472611.77804    -50842.83904      1350.63504        28.82604
E36  23715502.99904     28254.74904      -744.32404        27.03304                                                                
> 2023 07 14 05 57 33.9995714  0 19                      
G16  21827727.57923    -56639.02223      1651.70623        19.23723                                                                
G18  21151824.19705    -30978.69605       727.85005        30.94305  21151649.71805    -23153.08905       543.47505        32.58505
G20  24620900.20524     94806.38824     -2622.00324        24.11624                                                                
G26  20271470.15306     14640.79106      -356.81206        38.03806  20271291.47706     11801.20606      -266.38906        36.91206
G29  22086652.62925    155044.07825     -3628.74825        30.44225                                                                
G31  21755637.68505    134196.32505     -3149.49805        35.21005                                                                
R22  20384239.18524    161064.12624     -3792.32424        29.15524
R13  19176231.47114     47914.31014     -1130.59314        26.34014
R23  19478076.30825    -24498.24925       557.36525        35.44425
C11  22375551.22805    117844.40005     -2826.03805        34.24705                                                                
C23  22563652.70806   1473123.37906     -2700.81506        40.58706  22563474.03205     89056.31405     -2035.47605        34.50205
C28  23733730.68023    -71346.67023      1757.63723        20.69923  23733528.62004    -52906.86604      1320.87004        26.64304
C34  24026819.77905    143555.10205     -3722.86305        31.80605  24026640.80324    111818.47824     -2804.90924        24.02424
C37  23030671.19824    -18052.77124       503.41424        26.95824                                                                
C43  21603333.52305     56657.22105     -1337.40105        32.31605                                                                
E02  23513292.68604     82582.52204     -1989.89704        27.65704  23513104.71605     63508.16005     -1486.21805        30.96705
E30  24430467.23904    -28155.16204       706.77504        29.03204                                                                
E34  25472219.05024    -69878.50024      1808.77524        25.78824  25472056.86204    -52194.08604      1350.27904        28.93904
E36  23715425.65204     28999.78104      -744.73304        25.54304                                                                
> 2023 07 14 05 57 34.9995708  0 18                      
G18  21151507.91605    -31706.16005       727.57505        30.12405  21151331.63805    -23696.37705       543.78105        32.81105
G20  24621216.18724     97423.98524     -2621.25724        24.27424                                                                
G26  20271356.53206     14997.85706      -356.71006        37.59006  20271179.95406     12067.82006      -266.19406        36.93706
G29  22087163.17524    158672.80424     -3628.35824        29.12824                                                                
G31  21756054.39705    137346.79805     -3149.69105        33.81605                                                                
R22  20384774.31425    164856.59025     -3792.09625        29.50825
R13  19176259.35224     49047.51824     -1132.96024        27.28224
R23  19477802.29825    -25055.08525       556.95325        35.45225
C11  22375912.17805    120670.78805     -2825.97405        34.22705                                                                
C23  22563990.27506   1475824.73306     -2700.87306        40.70606  22563812.79705     91092.04005     -2035.38205        35.10605
C28  23733221.33323    -73109.54723      1754.86723        21.32323  23733012.67704    -54227.72204      1321.69104        27.17104
C34  24027362.40305    147277.92705     -3722.31805        33.05505  24027176.23224    114624.06424     -2805.05624        24.90324
C37  23030395.08924    -18557.60924       503.57524        26.18524                                                                
C43  21603410.87005     57994.68705     -1337.29805        31.53805  21603236.39123     43988.82323     -1007.90323        22.01423
E02  23513495.04604     84573.00904     -1990.66304        28.50804  23513302.87905     64994.49605     -1486.01905        30.73705
E30  24430151.85804    -28862.07804       706.96004        28.98404                                                                
E34  25471695.31224    -71687.69224      1809.72424        25.93824  25471532.82504    -53545.08704      1350.90804        28.76204
E36  23715395.97304     29745.41004      -745.39804        25.59404                                                                
> 2023 07 14 05 57 35.9995702  0 17                      
G18  21151191.03505    -32433.03505       726.05905        30.76605  21151012.65905    -24239.08605       542.50305        32.55105
G26  20271247.10806     15355.51506      -357.98006        37.80806  20271067.83206     12334.91506      -267.21206        36.95906
G29  22087685.41424    162301.48924     -3629.35624        27.27624                                                                
G31  21756474.40605    140498.01405     -3151.80205        33.01605                                                                
R22  20385294.15514    168649.72914     -3792.66014        27.95414
R13  19176285.13414     50181.52914     -1131.83914        27.43314
R23  19477510.60026    -25611.12826       555.58326        35.55726
C11  22376274.62705    123497.55605     -2826.90405        33.84705                                                                
C23  22564329.64007   1478526.62907     -2702.46207        41.58507  22564151.56306     93128.16706     -2036.30606        35.77306
C28  23732707.78823    -74861.99323      1754.64523        21.53823  23732493.73604    -55548.18504      1319.91404        26.80904
C34  24027893.63505    151000.88405     -3722.89405        34.22205  24027711.06224    117429.65924     -2805.70024        25.17124
C37  23030118.68124    -19062.26124       507.50824        24.14724                                                                
C43  21603490.01505     59332.79305     -1339.04305        31.01205  21603313.43724     44997.26724     -1008.23524        23.60924
E02  23513695.60704     86563.76504     -1991.22104        27.59504  23513499.54305     66481.07905     -1486.98905        29.56305
E30  24429837.67504    -29568.79404       706.67804        28.20104                                                                
E34  25471164.97924    -73496.62824      1809.13324        26.41524  25471007.58804    -54896.22504      1351.95904        28.62004
E36  23715363.29604     30491.47104      -746.65104        28.07904                                                                
> 2023 07 14 05 57 36.9995695  0 18                      
G05  23702620.31724     31068.40624      -805.94424        23.63724                                                                
G18  21150842.97605    -33159.31005       726.29405        30.06105  21150665.79905    -24781.41805       541.94805        32.32105
G26  20271101.70806     15713.60006      -358.16406        37.74306  20270925.13106     12602.51606      -268.02906        36.91106
G29  22088165.98105    165931.28205     -3629.95005        32.30905                                                                
G31  21756866.23505    143649.50505     -3152.36005        35.34605                                                                
R22  20385791.21025    172442.16025     -3794.58825        30.43125
R13  19176282.43624     51309.03724     -1133.65024        25.64924
R23  19477196.71715    -26166.32215       553.63915        31.89015
C11  22376609.49625    126324.48925     -2826.84425        32.51625                                                                
C23  22564636.02806   1481229.12306     -2702.76606        41.13406  22564460.64905     95164.76605     -2037.01205        35.04005
C28  23732165.76424    -76616.74924      1754.00224        23.86424  23731947.81404    -56868.41404      1319.84404        27.22504
C34  24028402.08325    154723.96825     -3722.53125        32.39925  24028216.51223    120235.38323     -2805.84523        23.36923
C37  23029811.39324    -19563.14824       506.25124        25.54624                                                                
C43  21603536.78325     60671.19725     -1339.81725        29.55125  21603362.00424     46005.90224     -1008.76924        24.63224
E02  23513844.90405     88554.60405     -1990.26605        29.74605  23513669.52505     67967.95205     -1487.11505        31.90005
E30  24429492.91405    -30275.18905       706.43905        31.04305                                                                
E34  25470621.75524    -75304.74424      1807.65224        26.25924  25470454.17104    -56246.26504      1350.77604        27.34904
E36  23715291.04604     31238.06204      -746.21404        26.51404                                                                
> 2023 07 14 05 57 37.9995689  0 20                      
G05  23702597.83324     31871.29124      -798.77424        23.63024                                                                
G16  21825720.16824    -63252.24724      1651.71324        25.63724                                                                
G18  21150519.80024    -33888.16824       726.76924        26.73824  21150348.61805    -25324.22605       543.14705        29.75805
G20  24622135.95023    105278.49223     -2621.57123        21.63723                                                                
G26  20270988.68706     16070.99506      -357.33306        38.11406  20270813.00806     12869.44106      -267.12006        36.05006
G29  22088681.32405    169559.11905     -3627.91005        31.45205                                                                
G31  21757282.64705    146800.48605     -3151.78205        34.87505                                                                
R22  20386328.73825    176234.71425     -3792.71925        32.89625
R13  19176305.82024     52446.71724     -1137.23224        24.03524
R23  19476920.90825    -26721.93325       554.69125        29.84625
C23  22564985.58607   1483930.79707     -2702.03907        42.88707  22564799.71405     97200.79705     -2036.67005        34.70605
C25  25459430.50324    122496.17324     -4425.60924        24.51224                                                                
C28  23731644.72424    -78363.73124      1753.11124        23.71124  23731432.17104    -58189.54704      1321.11804        27.73404
C34  24028927.91925    158445.96825     -3721.96225        33.20025  24028751.04224    123040.42224     -2805.10724        24.43424
C37  23029518.79624    -20069.09524       502.32524        26.94624                                                                
C43  21603615.92825     62008.96725     -1338.12325        32.76625  21603438.15124     47014.09224     -1007.76424        25.29824
E02  23514041.86804     90544.64304     -1989.65504        28.72304                                                                
E30  24429180.23004    -30981.85304       705.38704        28.23004                                                                
E34  25470107.61105    -77114.28105      1809.19005        29.66305  25469928.63504    -57597.24904      1350.17404        27.90004
E36  23715267.06204     31983.74804      -745.58204        29.32604                                                                
> 2023 07 14 05 57 38.9995682  0 21                      
G05  23702524.68424     32674.53224      -801.54524        23.76124                                                                
G16  21825190.43525    -64905.71825      1650.68725        31.40725                                                                
G18  21150181.33424    -34613.75424       730.94324        29.27424  21150008.05405    -25866.62405       541.85805        29.53205
G20  24622415.05723    107902.73923     -2621.29823        19.92123                                                                
G26  20270845.38606     16428.98606      -358.16406        38.66406  20270670.90705     13136.76805      -267.28005        33.85005
G29  22089173.58305    173188.14005     -3628.87205        30.78905                                                                
G31  21757676.57406    149952.04006     -3151.63206        40.49806                                                                
R22  20386833.28925    180028.24525     -3794.10725        32.73825
R13  19176306.12023     53588.23423     -1137.94423        21.87623
R23  19476608.52414    -27277.06114       554.59814        26.84614
C11  22377297.81925    131977.21925     -2827.15225        30.62325                                                                
C23  22565284.47907   1486633.14007     -2702.31807        42.41307  22565107.60105     99237.14905     -2036.49205        32.69005
C25  25460067.86223    126919.46623     -4422.54523        22.03923                                                                
C28  23731092.20724    -80116.58324      1752.65724        29.29124  23730884.45104    -59510.28304      1321.10804        24.23004
C34  24029427.37405    162168.47105     -3722.62405        35.34905  24029255.29304    125845.47804     -2805.74604        27.87404
C37  23029226.79824    -20564.85224       500.82524        28.56424                                                                
C43  21603666.29305     63347.72505     -1338.42805        31.84505  21603483.71924     48022.58324     -1008.49424        25.93424
E02  23514213.64904     92535.05104     -1990.31204        28.93904                                                                
E30  24428830.67204    -31689.30204       706.44004        27.03304                                                                
E34  25469547.89924    -78923.16424      1810.77524        26.45224  25469377.61705    -58948.24905      1351.19505        29.62305
E36  23715208.00305     32729.73705      -746.47805        34.26705  23715020.33304     23878.12704      -557.45104        26.48304
> 2023 07 14 05 57 39.9995676  0 21                      
G05  23702491.10724     33477.51124      -802.81224        23.98424                                                                
G16  21824688.88225    -66555.85125      1649.04625        31.44125                                                                
G18  21149865.35325    -35339.15125       724.60725        29.91625  21149687.57605    -26408.29805       541.36205        29.91405
G20  24622728.34023    110528.71123     -2623.01823        18.71423                                                                
G26  20270739.55906     16787.87006      -359.78806        39.51506  20270559.08405     13404.81105      -268.79005        34.12105
G29  22089675.43605    176817.37005     -3629.75605        31.42705                                                                
G31  21758095.98407    153104.27307     -3152.97807        43.15207                                                                
R22  20387378.61125    183822.54825     -3795.22025        31.65525
R13  19176340.29623     54732.71123     -1137.35323        19.52323
R23  19476335.41423    -27831.57123       553.38323        23.16323
C11  22377666.56425    134804.53525     -2828.12725        32.74025                                                                
C23  22565623.24406   1489335.82306     -2703.50306        41.04406  22565445.76705    101274.00405     -2037.72605        31.04105
C25  25460739.69723    131346.23123     -4423.06723        20.33223                                                                
C28  23730573.26624    -81868.74124      1751.09824        28.80824  23730365.21023    -60830.79023      1321.53723        22.91623
C34  24029963.70206    165891.67906     -3723.96006        36.29306  24029789.52304    128651.11904     -2806.24904        27.24204
C37  23028950.68925    -21067.59825       503.84725        31.08825                                                                
C43  21603743.04005     64686.65205     -1339.99705        31.82305  21603559.26704     49031.69004     -1010.26604        27.39404
E02  23514409.41305     94526.20705     -1991.80505        30.32605                                                                
E30  24428516.79004    -32395.96504       706.31604        28.29204  24428341.71124    -23688.90124       527.57724        24.85624
E34  25469024.76124    -80731.73524      1808.33424        26.11624  25468853.28005    -60299.00805      1350.79005        30.94305
E36  23715168.43106     33476.91206      -748.23206        36.10206  23714983.75804     24436.10004      -559.09504        25.44404
> 2023 07 14 05 57 40.9995670  0 21                      
G05  23702461.42723     34280.57723      -803.97523        22.39923                                                                
G16  21824199.02125    -68205.13825      1649.14625        31.14925                                                                
G18  21149552.07024    -36062.96124       715.50924        26.33424  21149369.19604    -26949.10404       541.01904        27.65204
G20  24623039.22523    113149.31523     -2626.57423        19.26923                                                                
G26  20270622.64006     17147.79706      -360.20706        39.85706  20270448.76006     13673.54106      -269.17206        35.78306
G29  22090200.97214    180447.27714     -3630.12614        28.49814                                                                
G31  21758512.99506    156257.50206     -3153.66106        39.73206                                                                
R22  20387882.26325    187617.98125     -3795.93025        34.16625
R13  19176368.17723     55872.18023     -1137.04523        22.69123
R23  19476050.01123    -28387.12423       552.66323        23.03823
C11  22378032.31125    137632.76125     -2828.89525        30.62425                                                                
C23  22565971.00307   1492039.51807     -2704.18207        43.21907  22565784.83205    103311.51705     -2038.24305        30.78405
C25  25461414.53023    135772.24823     -4423.65723        21.98923                                                                
C28  23730057.02324    -83619.85324      1752.23124        26.75324  23729853.46404    -62150.63404      1319.04604        27.53404
C34  24030498.23205    169615.43105     -3723.93205        35.17105  24030323.15304    131457.42004     -2806.63504        27.09404
C37  23028685.67324    -21570.42824       502.04924        29.07224                                                                
C43  21603819.78705     66026.49005     -1340.37505        35.45105  21603636.91304     50041.23304     -1009.50704        28.06504
E02  23514628.26204     96518.46704     -1992.58004        28.73104                                                                
E30  24428201.10804    -33101.80304       706.03504        27.32504  24428026.92923    -24216.29023       526.72723        21.95523
E34  25468502.22324    -82540.19924      1807.56224        28.07224  25468328.94305    -61649.14405      1349.38805        30.76405
E36  23715131.85605     34225.27305      -748.00905        32.22705  23714945.68504     24994.71904      -558.95004        27.28504
> 2023 07 14 05 57 41.9995663  0 20                      
G16  21823682.47925    -69853.91325      1648.81425        29.74125                                                                
G18  21149204.31123    -36785.00023       715.70023        23.06523  21149019.33904    -27489.25304       539.93604        26.37404
G20  24623274.56223    115768.43323     -2625.14923        18.60323                                                                
G26  20270479.93906     17508.45006      -360.60406        40.10606  20270307.85806     13942.85506      -269.33706        37.05906
G29  22090683.03824    184081.47224     -3622.29424        23.56424                                                                
G31  21758904.22406    159411.65406     -3154.26206        38.06706                                                                
R22  20388389.81125    191414.08725     -3795.81825        34.47525
R13  19176380.16823     57011.09923     -1138.32323        21.79123
R23  19475724.73624    -28939.19124       549.54224        27.42624
C11  22378366.57925    140461.41725     -2828.85125        30.05225                                                                
C23  22566281.88807   1494744.01707     -2704.55907        43.58207  22566095.41705    105349.65205     -2038.80305        30.85105
C25  25462048.29123    140199.09523     -4426.47223        23.16023                                                                
C28  23729506.60424    -85370.76524      1750.39524        27.96224  23729308.74104    -63470.23804      1319.65504        29.12004
C34  24031000.98405    173339.44805     -3724.17805        33.28005  24030827.10504    134263.80604     -2806.06104        25.68804
C37  23028376.58724    -22076.07624       502.82224        24.05924                                                                
C43  21603869.85206     67367.05606     -1340.55906        37.72006  21603683.68104     51051.52804     -1010.23804        28.20804
E02  23514787.15204     98511.05904     -1992.41404        29.39504  23514616.57004     75399.76404     -1487.05504        29.17004
E30  24427847.65304    -33807.14004       704.85104        24.57004                                                                
E34  25467947.00705    -84347.68805      1807.96205        30.44005  25467774.32705    -62998.91005      1349.99705        29.99105
E36  23715067.10105     34974.11805      -748.53605        30.53205  23714877.33204     25553.82804      -558.81204        28.61304
> 2023 07 14 05 57 42.9995657  0 18                      
G16  21823195.01605    -71502.11605      1647.66405        29.71505                                                                
G18  21148887.13023    -37503.90023       715.72023        20.54023  21148700.65904    -28028.78604       538.74804        25.47104
G26  20270373.81206     17869.89606      -361.92806        40.16606  20270196.63506     14212.77206      -270.26906        36.99706
G29  22091193.28523    187718.43523     -3631.46723        19.94023                                                                
G31  21759323.63406    162566.54606     -3155.25006        37.32106                                                                
R22  20388922.84225    195210.98925     -3797.55725        34.86025
R13  19176420.04123     58155.11723     -1138.25823        21.82523
R23  19475466.91524    -29490.43224       552.10124        24.02924
C11  22378730.82725    143290.66525     -2829.92625        29.81125                                                                
C23  22566620.35407   1497449.18607     -2705.35107        44.04007  22566435.68205    107388.26005     -2038.93005        31.42405
C25  25462719.82623    144626.31523     -4427.12523        22.08623                                                                
C28  23728989.16324    -87121.28624      1750.94224        27.78524  23728792.19904    -64789.30404      1318.46704        29.28504
C34  24031534.61505    177063.87505     -3724.70405        32.77705  24031364.03304    137070.59004     -2807.01804        24.83004
C43  21603949.89706     68708.30806     -1341.60506        38.03106  21603761.92704     52062.31604     -1011.22604        28.03904
E02  23514990.11104    100504.12304     -1993.16604        28.13204  23514817.13104     76888.23104     -1488.39504        29.08304
E30  24427537.36804    -34512.12404       704.74104        24.23104                                                                
E34  25467425.06805    -86154.67705      1807.05805        30.94105  25467251.18904    -64348.31804      1349.64704        29.45104
E36  23715033.22405     35723.64505      -750.18005        30.21105  23714839.25804     26113.61504      -560.40504        28.55204
> 2023 07 14 05 57 43.9995651  0 17                      
G16  21822696.76105    -73150.00605      1647.70105        30.57405                                                                
G18  21148567.85123    -38216.15923       716.35823        21.05523  21148384.67804    -28567.94104       538.44304        24.14004
G26  20270260.79006     18231.85806      -362.40006        39.96006  20270085.41206     14483.09106      -270.80006        36.59506
G31  21759744.84206    165721.96206     -3155.70206        37.28806                                                                
R22  20389454.67425    199008.43625     -3798.26225        35.02225
R13  19176455.41624     59299.47624     -1140.41024        23.65624
R23  19475174.61723    -30043.85423       550.79523        21.29023
C11  22379092.07725    146120.18625     -2829.69325        29.80325                                                                
C23  22566959.41907   1500154.88907     -2706.14507        44.17107  22566775.94605    109427.29705     -2039.49305        32.14305
C25  25463388.96323    149053.57323     -4428.03223        21.02323                                                                
C28  23728472.02124    -88871.45724      1753.49724        25.83424  23728275.65704    -66108.26504      1318.60304        29.23004
C34  24032071.84305    180788.55005     -3725.02505        33.23605  24031896.16404    139877.47004     -2806.56704        25.39004
C43  21604023.34606     70050.00406     -1341.90406        37.60806  21603839.87304     53073.43304     -1011.25504        27.46204
E02  23515194.57004    102497.66104     -1994.30704        27.39604  23515017.39205     78376.85405     -1488.90205        29.72505
E30  24427230.98004    -35216.87404       704.87204        26.34304                                                                
E34  25466902.53005    -87961.40805      1806.60605        30.79505  25466727.15204    -65697.42304      1349.18204        29.36304
E36  23715002.04604     36473.56104      -750.43904        28.18504  23714802.08404     26673.69904      -560.48504        28.96804
> 2023 07 14 05 57 44.9995644  0 19                      
G16  21822172.72405    -74797.32605      1647.12205        30.88605                                                                
G18  21148223.98923    -38925.63623       716.04223        22.00223  21148040.51623    -29106.79023       538.13123        22.36423
G26  20270122.58606     18594.53406      -363.13706        39.99006  20269945.10906     14753.85106      -270.87706        36.77706
G29  22092193.39323    194985.21923     -3630.98923        20.21423                                                                
G31  21760134.27306    168878.14306     -3156.81106        37.41006                                                                
R22  20389965.82025    202806.55225     -3798.69125        35.19725
R13  19176461.71223     60438.07423     -1141.83023        22.62823
R23  19474853.83923    -30601.78423       550.29823        22.77723
C11  22379425.74605    148950.84305     -2830.77705        30.17005                                                                
C23  22567270.60407   1502861.20307     -2706.79707        43.92107  22567085.33205    111466.75205     -2039.92205        31.68805
C25  25464029.91923    153481.23323     -4429.57423        19.94223                                                                
C28  23727923.70024    -90621.19024      1751.06024        25.78624  23727729.43504    -67426.92104      1318.89704        29.26304
C34  24032574.29505    184513.54405     -3725.05605        32.98505  24032403.11404    142684.72904     -2807.80704        25.50104
C37  23027521.87822    -23585.01322       503.45422        17.05122                                                                
C43  21604073.71106     71392.34006     -1342.61006        37.80106  21603887.84004     54085.02304     -1011.77104        27.79404
E02  23515368.74904    104491.63804     -1994.22304        27.30904  23515186.47504     79865.89904     -1489.47704        29.20504
E30  24426886.51804    -35921.12904       703.68004        26.45604                                                                
E34  25466346.41505    -89767.63805      1805.85405        30.51405  25466173.13505    -67046.26905      1348.77005        30.00205
E36  23714936.69104     37224.27104      -750.86604        28.24604  23714736.43004     27234.23804      -561.02504        28.70104
> 2023 07 14 05 57 45.9995638  0 18                      
G16  21821676.86705    -76444.15005      1646.28705        30.20805                                                                
G18  21147911.00623    -39640.62923       717.57023        22.67423  21147722.73623    -29644.69123       537.83323        22.29723
G26  20270012.56206     18957.87006      -363.68206        40.56106  20269833.88606     15025.18806      -271.59706        37.43506
G29  22092703.04023    198615.30923     -3633.63123        18.06923                                                                
G31  21760553.98206    172035.01906     -3157.35506        38.38206                                                                
R22  20390500.65025    206605.35725     -3799.35625        35.13425
R13  19176489.89223     61572.96623     -1143.85223        21.80823
R23  19474516.57324    -31150.25824       548.88624        28.78324
C11  22379791.79305    151781.43305     -2830.74505        30.85005                                                                
C23  22567609.66907   1505568.15607     -2707.45107        43.67907  22567424.99705    113506.68705     -2040.56105        31.23905
C25  25464698.75623    157909.37423     -4433.65523        18.13223                                                                
C28  23727400.26324    -92370.26124      1745.12924        26.98624  23727213.79204    -68745.13904      1317.82304        29.32704
C34  24033107.62605    188238.88105     -3725.63505        33.01705  24032939.14204    145492.07104     -2807.01404        25.21804
C43  21604153.75606     72735.28106     -1343.33206        38.18606  21603966.68504     55097.00504     -1012.81904        27.89904
E02  23515553.72104    106486.12804     -1994.75904        28.62504  23515384.93804     81355.29104     -1489.65304        29.48804
E30  24426576.83304    -36625.00904       703.97804        25.83804                                                                
E34  25465824.77605    -91573.47905      1805.36605        31.90405  25465650.59705    -68394.87005      1348.93205        30.79105
E36  23714892.92105     37975.58805      -751.50005        30.14005  23714698.95604     27795.24704      -561.65704        28.79104
> 2023 07 14 05 57 46.9995631  0 18                      
G16  21821148.33314    -78090.43814      1648.35314        26.99114                                                                
G18  21147562.04723    -40363.64523       719.74723        22.19523  21147375.57723    -30181.92323       536.23723        21.87923
G26  20269869.26207     19322.12807      -365.17707        42.74607  20269695.08206     15297.16906      -272.66306        39.70906
G29  22093177.61123    202243.85823     -3633.39023        18.32323                                                                
G31  21760946.71007    175192.70207     -3158.54207        41.73307                                                                
R22  20390990.81125    210405.05525     -3800.73425        35.16825
R13  19176492.89023     62718.93823     -1144.25223        21.63323
R23  19474260.55026    -31697.33226       546.17326        37.13526
C11  22380123.06305    154612.71405     -2832.06605        32.01105                                                                
C23  22567919.35507   1508275.84707     -2708.39307        41.68807  22567734.68204    115547.05704     -2041.07504        28.57604
C25  25465330.41922    162329.81822     -4433.06622        16.30022                                                                
C28  23726846.24625    -94118.96325      1747.55225        30.23825  23726669.36904    -70062.93404      1316.94704        29.44404
C34  24033613.37605    191964.79605     -3726.73905        33.71205  24033445.79204    148300.03104     -2808.84304        26.71204
C43  21604199.32406     74078.98906     -1344.24506        38.76406  21604016.45105     56109.57205     -1013.11205        29.70405
E02  23515721.60505    108481.31105     -1995.74205        31.62305  23515554.92005     82845.22505     -1490.74905        29.59705
E30  24426227.27504    -37328.25604       703.03604        24.02804                                                                
E34  25465266.56305    -93378.70505      1804.23905        33.78105  25465097.48005    -69742.92405      1347.31305        30.95905
E36  23714823.96905     38727.75905      -753.00505        31.87105  23714631.80204     28356.87504      -562.27204        28.53904
> 2023 07 14 05 57 47.9995625  0 19                      
G16  21820650.67824    -79736.38024      1647.95124        24.65224                                                                
G18  21147246.36624    -41082.45824       719.47324        25.08524  21147058.09624    -30718.67724       535.92624        25.64324
G26  20269759.83707     19686.97207      -365.33407        43.21707  20269584.15906     15569.60306      -272.58306        40.77706
G29  22093676.16623    205876.94323     -3633.01723        21.80223                                                                
G31  21761367.91807    178351.06807     -3158.60707        43.55207                                                                
R22  20391520.24426    214205.40726     -3800.70726        35.64026
R13  19176526.46723     63868.34223     -1144.58923        22.77823
R23  19473956.86026    -32243.60326       545.93226        41.26826
C11  22380487.61105    157444.48205     -2832.13205        32.25205                                                                
C23  22568260.51806   1510984.10406     -2708.46006        40.13506  22568073.14804    117588.05704     -2041.46604        25.33704
C25  25465990.26222    166756.03022     -4425.36922        14.45022                                                                
C28  23726333.60125    -95867.36625      1748.11225        31.95125  23726154.02505    -71380.53905      1317.09705        29.88805
C34  24034148.50505    195691.07905     -3726.83205        32.72705  24033980.32204    151108.12504     -2808.51904        26.85304
C37  23026632.09423    -25122.08823       496.64923        22.69123                                                                
C43  21604281.46706     75423.23206     -1344.41706        39.34206  21604094.99605     57122.63105     -1013.57305        31.30305
E02  23515919.76805    110476.97605     -1996.27405        33.41905  23515755.18104     84335.44504     -1490.35804        28.88404
E30  24425911.59323    -38032.70023       703.70623        19.89023                                                                
E34  25464744.02505    -95183.74205      1805.09005        35.16605  25464574.34205    -71090.79105      1347.76605        30.76605
E36  23714784.69605     39480.54505      -753.21705        33.29905  23714594.32804     28919.03604      -562.95304        29.04504
> 2023 07 14 05 57 48.9995619  0 19                      
G16  21820151.22414    -81381.65014      1647.58714        25.61614                                                                
G18  21146929.78523    -41802.11623       718.82723        22.81023  21146736.71904    -31254.86304       536.05204        27.91804
G26  20269648.61407     20052.59507      -365.90107        41.56307  20269473.23606     15842.58406      -272.91306        39.86706
G29  22094190.01105    209509.91605     -3633.56805        31.86105                                                                
G31  21761792.12507    181510.05307     -3159.27707        43.36807                                                                
R22  20392046.08026    218006.66626     -3801.49326        35.58326
R13  19176565.74023     65019.03523     -1143.22023        19.24223
R23  19473672.95706    -32788.95806       544.88306        40.45706
C11  22380855.15624    160276.57224     -2833.39324        28.61724                                                                
C23  22568589.99006   1513692.79706     -2709.06906        38.85906  22568414.61224    119629.49524     -2041.42724        23.80924
C25  25466659.99822    171182.76822     -4427.32022        16.83722                                                                
C28  23725817.35825    -97615.42025      1747.04625        32.20125  23725637.78305    -72697.91005      1317.04405        30.48305
C34  24034713.61425    199417.51825     -3726.40325        32.55225  24034515.75104    153916.64104     -2809.05304        25.56604
C37  23026365.87924    -25620.93724       498.07724        24.19624                                                                
C43  21604352.81806     76768.03206     -1345.62706        37.18406  21604175.04105     58136.06405     -1013.37905        30.54805
E02  23516120.02905    112473.20905     -1995.93705        32.15905  23515944.95004     85826.13804     -1490.61904        29.37004
E30  24425614.49925    -38737.33125       702.59025        30.56625                                                                
E34  25464229.58106    -96988.41306      1804.30706        35.66506  25464049.10605    -72438.49705      1347.42905        31.41805
E36  23714728.63505     40233.84305      -753.47805        31.70005  23714559.85204     29481.57504      -563.28204        27.80804
> 2023 07 14 05 57 49.9995612  0 19                      
G16  21819637.08024    -83026.87824      1645.54724        28.44424                                                                
G18  21146582.62523    -42524.07023       716.97023        17.95623  21146388.06005    -31790.72605       535.18705        29.64605
G26  20269509.81006     20418.45606      -366.20206        40.43906  20269332.93306     16115.81706      -273.41306        38.81006
G29  22094666.08105    213143.56005     -3633.78405        34.22505                                                                
G31  21762183.65407    184669.46107     -3159.63507        43.23307                                                                
R22  20392740.99925    221807.99425     -3801.75025        35.47025
R13  19176574.73422     66171.17322     -1143.99322        17.11522
R23  19473359.97306    -33333.71206       544.24206        38.30206
C11  22381186.72725    163108.90725     -2832.26225        30.56225                                                                
C23  22568899.67606   1516401.98606     -2709.31106        40.32306  22568726.39604    121671.14004     -2041.95304        24.51504
C25  25467324.93822    175609.89422     -4425.36922        16.19722                                                                
C28  23725275.03425    -99363.30625      1747.54025        31.60125  23725092.16005    -74015.12105      1317.17305        30.89005
C34  24035204.37425    203144.11425     -3726.76525        34.48725                                                                
C37  23026102.36124    -26118.39224       499.06424        23.87824                                                                
C43  21604393.88905     78113.04805     -1345.02405        33.86505  21604224.20704     59149.74504     -1014.03704        28.81504
E02  23516290.91105    114469.47205     -1996.65305        30.67405  23516114.03305     87316.76605     -1490.41205        30.76505
E30  24425265.84005    -39439.94005       702.43605        32.76505                                                                
E34  25463672.86605    -98792.90605      1804.72305        33.79205  25463495.68905    -73786.00205      1347.63205        31.55905
E36  23714645.59204     40987.49504      -753.58304        28.68304  23714493.59804     30044.12504      -562.35204        24.39804
> 2023 07 14 05 57 50.9995606  0 19                      
G05  23702162.53424     42338.36224      -807.60724        24.23924                                                                
G16  21819138.22524    -84671.50324      1644.22224        29.07524                                                                
G18  21146273.53923    -43245.97323       716.05423        17.51423  21146071.77905    -32326.26105       535.42305        30.57005
G26  20269402.18506     20784.87206      -366.49006        41.44906  20269222.30906     16389.45306      -273.90406        38.96406
G29  22095177.22705    216777.54205     -3634.51005        33.64105                                                                
G31  21762605.76207    187829.40607     -3160.46307        42.61807                                                                
R22  20393263.53726    225609.90226     -3802.45026        35.84026
R13  19176567.53922     67318.61522     -1144.21522        17.02122
R23  19473083.56506    -33877.75406       543.50506        36.54106
C11  22381545.27905    165942.21605     -2833.28105        31.26905                                                                
C23  22569245.63606   1519111.63006     -2710.00306        41.39006  22569067.26004    123713.19204     -2042.18504        25.99504
C28  23724759.99005   -101110.37605      1747.25305        30.92005  23724575.91805    -75332.01905      1316.17605        30.58905
C34  24035733.80805    206871.48305     -3727.38805        33.13005                                                                
C37  23025828.65124    -26615.24724       499.26324        24.61924                                                                
C43  21604464.04105     79458.63605     -1346.42805        31.63605  21604303.35204     60163.72604     -1013.47204        27.78304
E02  23516494.47005    116466.03505     -1996.94305        30.18805  23516316.39305     88807.78505     -1491.40805        30.43705
E30  24424952.25705    -40142.25205       702.27205        33.38705                                                                
E34  25463147.92905   -100597.18905      1803.94305        32.01505  25462972.55105    -75133.33805      1347.26105        31.41905
E36  23714598.52504     41741.70304      -754.62204        26.23404  23714457.32323     30606.70423      -564.04023        21.73723
> 2023 07 14 05 57 51.9995599  0 19                      
G05  23702119.96424     43149.88624      -811.39824        24.36124                                                                
G16  21818616.88624    -86316.08124      1644.27824        28.71824                                                                
G18  21145934.77422    -43963.30622       716.32622        16.65422  21145725.21905    -32861.35105       534.76905        30.48705
G26  20269262.78106     21151.67306      -366.92106        41.17206  20269082.90606     16663.33006      -273.97906        38.49406
G29  22095659.89305    220411.54405     -3634.37905        34.18305                                                                
G31  21762997.89007    190989.71507     -3160.86607        42.18607                                                                
R22  20393766.58925    229412.07925     -3802.62925        35.36425
R13  19176553.44823     68442.88523     -1145.22023        17.53523
R23  19472756.19106    -34421.22006       543.22006        35.97006
C11  22381878.94805    168775.02205     -2833.02105        31.54005                                                                
C23  22569555.62207   1521821.61407     -2710.21007        41.94707  22569377.84504    125755.49504     -2042.90604        27.65104
C28  23724216.46705   -102857.87705      1747.20205        30.28205  23724029.99605    -76648.93505      1316.45705        30.62305
C34  24036236.56005    210598.25505     -3727.16705        32.84305                                                                
C37  23025521.66324    -27109.92624       498.10324        25.34324                                                                
C43  21604507.81005     80804.51605     -1346.44705        29.67805  21604352.81804     61178.18404     -1015.39504        27.00104
E02  23516662.95305    118462.72405     -1997.09205        29.54805  23516486.07505     90298.76705     -1491.38205        31.22905
E30  24424605.99705    -40844.40205       701.83805        33.67905                                                                
E34  25462594.51305   -102401.29905      1803.97905        31.27505  25462420.03305    -76480.54105      1347.28705        31.30105
E36  23714537.36714     42496.16414      -755.01314        25.60414                                                                
> 2023 07 14 05 57 52.9995593  0 19                      
G05  23702085.18824     43960.40424      -818.88024        24.55524                                                                
G16  21818121.02924    -87960.44324      1645.04124        29.42324                                                                
G26  20269154.55606     21518.95806      -367.49506        41.09806  20268972.58206     16937.63806      -274.92806        38.89106
G29  22096162.34505    224045.81505     -3634.42105        34.27205                                                                
G31  21763419.99807    194150.51207     -3161.18807        41.88207                                                                
G18                                                                  21145408.63805    -33396.15505       534.45005        30.89305
R22  20394299.62025    233214.75625     -3802.91825        34.74225
R13  19176613.10723     69590.41323     -1146.19523        18.24423
R23  19472488.47705    -34963.95905       542.31505        35.16905
C11  22382241.99605    171608.22905     -2833.27605        31.09405                                                                
C23  22569896.18607   1524532.03207     -2710.61607        42.34607  22569717.21004    127798.01504     -2042.72904        27.51704
C28  23723702.62225   -104606.08225      1745.93425        30.09925  23723514.95205    -77965.76405      1317.02605        30.36805
C34  24036774.68705    214325.07105     -3726.72705        32.63905                                                                
C37  23025258.44524    -27606.27824       496.12924        25.55124                                                                
C43  21604591.75204     82150.80904     -1346.77804        29.42704  21604431.06404     62192.59804     -1014.37704        26.52404
E02  23516868.91004    120459.67904     -1997.37204        29.44804  23516683.93805     91789.95205     -1491.18005        30.20405
E30  24424294.81305    -41546.42905       701.80405        33.91705                                                                
E34  25462072.57405   -104205.19505      1803.53205        31.19305  25461897.19505    -77827.60805      1347.10105        31.54605
E36  23714498.39404     43251.02404      -755.47204        25.89604                                                                
> 2023 07 14 05 57 53.9995587  0 19                      
G05  23702053.11014     44772.77814      -810.54814        25.37914                                                                
G16  21817633.26724    -89604.48424      1644.19624        28.85624                                                                
G26  20269040.63506     21886.58706      -367.87906        40.96506  20268863.15806     17212.10606      -274.54206        38.80106
G29  22096676.48905    227680.11105     -3634.23405        34.73105                                                                
G31  21763840.30707    197311.65607     -3161.40407        42.06507                                                                
G18                                                                  21145093.25705    -33930.55805       533.99205        30.78305
R22  20394838.64725    237017.77325     -3803.48625        35.18125
R13  19176679.66123     70735.32823     -1146.68223        18.60423
R23  19472209.07005    -35506.19005       541.95505        34.58205
C11  22382608.04305    174441.64605     -2833.65105        31.04705                                                                
C23  22570236.75007   1527242.68407     -2710.83907        42.41407  22570058.07404    129840.79904     -2043.14004        28.55004
C28  23723196.87325   -106353.33525      1746.78425        30.14525  23722999.60905    -79282.40805      1316.59405        30.81105
C34  24037312.81505    218052.08205     -3727.33305        33.01305                                                                
C37  23024976.94024    -28102.23724       495.89424        26.69524                                                                
C43  21604663.40325     83496.83825     -1347.22325        29.73525  21604509.01004     63207.38304     -1014.88104        26.61904
E02  23517062.87604    122456.81104     -1997.81104        29.38704  23516882.70105     93281.31105     -1491.30805        29.71905
E30  24423981.23005    -42248.42605       701.71605        33.55805                                                                
E34  25461546.13805   -106008.97205      1803.51205        31.49105  25461373.45805    -79174.57705      1346.66105        31.22205
E36  23714467.21604     44006.16004      -755.55704        27.32504                                                                
> 2023 07 14 05 57 54.9995580  0 18                      
G05  23702000.04723     45591.31123      -812.78523        22.74823                                                                
G16  21817105.33204    -91248.37204      1643.70804        29.14104                                                                
G26  20268902.13106     22254.56906      -368.13906        41.25006  20268723.15506     17486.93906      -275.06306        39.41506
G29  22097160.65405    231314.69005     -3634.94905        34.47005                                                                
G31  21764231.83607    200473.30007     -3161.92407        42.51607                                                                
G18                                                                  21144746.69605    -34464.69505       534.13205        30.32105
R22  20395333.90426    240821.11326     -3803.33826        35.82026
R23  19471890.39105    -36047.78605       541.48805        35.02005
C11  22382944.11005    177275.15205     -2833.81905        30.62705                                                                
C23  22570547.03507   1529953.73107     -2711.19307        42.11907  22570368.95904    131883.76504     -2042.33104        27.72904
C28  23722648.55225   -108100.26225      1746.47125        29.63825  23722454.88605    -80599.02405      1316.58405        31.10905
C34  24037820.36305    221779.03305     -3727.11905        33.87805                                                                
C37  23024677.14824    -28597.88824       496.16824        26.05024                                                                
C43  21604712.86925     84843.64425     -1347.29825        29.90325  21604558.47504     64222.31204     -1014.71804        26.78004
E02  23517232.55904    124454.12404     -1997.59704        29.00504  23517053.58305     94772.84705     -1491.86305        30.63405
E30  24423637.06805    -42950.37205       701.88705        33.59005                                                                
E34  25460992.72205   -107812.62805      1803.19905        31.77405  25460820.34105    -80521.50005      1346.90905        30.87905
E36  23714399.46304     44761.66804      -755.66804        26.95304                                                                
> 2023 07 14 05 57 55.9995574  0 18                      
G05  23701967.07023     46407.05223      -812.86923        19.09223                                                                
G16  21816615.17214    -92891.96514      1644.06814        27.23014                                                                
G26  20268793.30606     22623.28006      -368.82806        40.93406  20268613.43106     17762.25406      -275.22706        38.85506
G29  22097675.99705    234949.48605     -3634.53805        34.62605                                                                
G31  21764654.24307    203635.51107     -3162.60607        42.61907                                                                
G18                                                                  21144433.71305    -34998.35205       533.81805        30.65605
R22  20395895.41526    244625.16326     -3804.35726        36.39826
R23  19471610.38506    -36588.29906       540.27206        37.60806
C11  22383311.95605    180109.10605     -2834.24205        29.60205                                                                
C23  22570887.00007   1532665.36607     -2711.61607        41.68507  22570710.12305    133927.30805     -2043.18705        31.84705
C28  23722126.61325   -109846.90125      1746.16025        29.74125  23721939.54305    -81915.24305      1316.20205        29.55805
C34  24038368.08406    225506.27806     -3727.06306        36.94206                                                                
C37  23024400.43924    -29093.03424       495.32924        28.22624                                                                
C43  21604796.21125     86191.44325     -1349.70325        30.73125  21604638.22004     65237.97504     -1014.94404        25.87004
E02  23517428.92304    126451.83404     -1998.41504        26.61704  23517255.34305     96264.64805     -1492.07805        31.36805
E30  24423323.78505    -43651.80005       701.13705        33.82605                                                                
E34  25460468.68405   -109615.99305      1803.50205        32.49805  25460297.50305    -81868.05405      1345.76205        30.15005
E36  23714382.07504     45517.73804      -755.70704        28.12504                                                                
> 2023 07 14 05 57 56.9995568  0 18                      
G05  23701938.58923     47227.29123      -814.32123        19.92823                                                                
G16  21816130.10724    -94535.57324      1642.41324        24.97024                                                                
G26  20268682.08306     22992.39806      -368.88906        37.02006  20268503.70706     18037.79106      -275.70006        36.67506
G29  22098197.33605    238584.49105     -3634.74705        33.02405                                                                
G31  21765081.74706    206798.16306     -3162.76806        38.71306                                                                
G18                                                                  21144119.53105    -35531.52305       533.21105        31.41105
R22  20396414.95625    248429.61625     -3804.95625        34.72525
R23  19471340.27206    -37128.36206       540.01606        36.05806
C11  22383678.00225    182942.73025     -2834.13225        30.66325                                                                
C23  22571228.46407   1535377.31307     -2711.89207        43.06907  22571051.88606    135971.01306     -2043.60806        36.20106
C28  23721604.67505   -111593.43005      1746.57605        30.65605  23721423.30004    -83231.56204      1316.64504        28.08704
C34  24038898.71705    229233.47705     -3726.59805        35.33105                                                                
C37  23024120.73324    -29587.83024       495.16924        28.47024                                                                
C43  21604882.85124     87547.59824     -1351.75024        28.80424  21604715.86604     66253.59004     -1015.50304        25.16904
E02  23517620.19004    128449.66304     -1997.88504        28.42104  23517454.70505     97756.58705     -1492.29505        30.35605
E30  24423011.40105    -44353.32305       701.60005        31.88405                                                                
E34  25459948.54425   -111419.15625      1803.53125        30.39825  25459774.06504    -83214.55404      1345.23504        27.16504
E36  23714352.99505     46274.21805      -756.44605        29.68305  23714178.81623     33984.16623      -565.00523        21.96323
> 2023 07 14 05 57 57.9995561  0 20                      
G05  23701890.92223     48042.48423      -816.37223        21.77423                                                                
G16  21815623.75824    -96176.45824      1645.65124        27.22624                                                                
G18  21143966.33724    -48260.60224       713.26624        24.80924  21143772.97105    -36064.27205       532.37905        29.68205
G26  20268547.17706     23362.08106      -370.43506        36.39806  20268364.30305     18313.81105      -276.17105        34.99405
G29  22098675.20505    242219.79805     -3635.47405        34.16105                                                                
G31  21765469.07906    209961.35206     -3163.66906        35.52806                                                                
R22  20396912.91125    252234.49425     -3805.01225        35.28225
R13  19176755.50814     75333.03614     -1149.99414        26.50914
R23  19471026.08906    -37667.73406       538.94506        37.72106
C11  22384020.36525    185777.28325     -2834.65525        32.32025                                                                
C23  22571538.74907   1538089.77207     -2712.93907        43.23007  22571361.57206    138015.11106     -2044.34406        37.58606
C25  25472612.07824    211023.56124     -4426.82024        23.52724                                                                
C28  23721058.45324   -113339.75124      1746.35524        28.45424  23720877.37804    -84547.41604      1315.73304        27.63504
C34  24039404.76605    232961.12705     -3727.71805        35.37905                                                                
C37  23023807.15025    -30082.03225       494.29825        29.80625                                                                
C43  21604939.81124     88904.10524     -1350.31024        25.61124  21604763.83304     67269.57404     -1016.29004        26.27604
E02  23517788.07404    130447.86104     -1998.17404        28.58604  23517625.28705     99248.76405     -1492.27905        31.85505
E30  24422670.53705    -45054.49805       701.23205        31.02205                                                                
E34  25459399.32505   -113222.06205      1802.63905        29.60705  25459219.74924    -84561.03524      1344.56424        24.33024
E36  23714282.54405     47031.23905      -757.67305        30.50105  23714112.86123     34549.27823      -565.69423        22.96823
> 2023 07 14 05 57 58.9995555  0 20                      
G05  23701866.33923     48856.80923      -816.60523        19.34623                                                                
G16  21815141.69224    -97822.98124      1645.77824        24.67224                                                                
G18  21143654.55324    -48973.35324       712.68524        24.32324  21143457.28905    -36596.45505       532.12805        29.69305
G26  20268432.95606     23732.33506      -370.23006        37.93606  20268254.28006     18590.39606      -276.53506        36.05706
G29  22099187.85105    245855.59505     -3635.43905        34.02705                                                                
G31  21765893.28606    213125.23406     -3163.83806        36.22406                                                                
R22  20397452.53726    256040.21626     -3805.88026        35.78926
R13  19176827.45924     76491.02624     -1152.54224        25.59024
R23  19470749.98006    -38206.16306       538.42106        38.65606
C11  22384386.71225    188612.52125     -2835.70425        31.20825                                                                
C23  22571880.21207   1540802.88607     -2712.95607        43.33207  22571703.33506    140059.75406     -2044.70306        37.59106
C25  25473285.41123    215452.61623     -4427.33523        21.86523                                                                
C28  23720537.41424   -115085.58124      1745.16424        26.86224  23720362.93404    -85863.08004      1315.86004        27.51204
C34  24039940.19606    236689.15506     -3727.85706        36.36006                                                                
C37  23023525.04524    -30575.54824       493.51624        29.24624                                                                
C43  21605020.75523     90255.77023     -1350.02623        23.25323  21604843.57804     68285.92704     -1016.03504        24.90804
E02  23517989.53504    132446.80104     -1999.14204        27.82904  23517825.84805    100741.46105     -1492.61005        31.92305
E30  24422362.35004    -45755.12604       700.12104        28.39204                                                                
E34  25458875.58705   -115024.53105      1802.51805        30.18205  25458697.51004    -85906.94004      1345.97304        24.66004
E36  23714257.36105     47788.83605      -757.83605        32.10305  23714078.08524     35115.15324      -566.05224        24.48424
> 2023 07 14 05 57 59.9995548  0 20                      
G05  23701806.38123     49673.26323      -817.21023        21.30223                                                                
G16  21814622.45123    -99472.68623      1645.42823        21.65623                                                                
G18  21143302.59623    -49688.34323       711.56923        22.62123  21143113.72705    -37128.17205       531.33505        30.96505
G26  20268293.85206     24103.17106      -371.17906        39.29806  20268115.17606     18867.33406      -277.27606        36.30606
G29  22099666.61905    249491.60405     -3636.43505        33.42105                                                                
G31  21766282.71606    216289.70706     -3164.80406        38.50806                                                                
R22  20397941.49926    259846.45226     -3806.68926        36.33826
R13  19176801.37724     77648.71424     -1151.23724        24.90124
R23  19470442.99306    -38743.87306       537.20406        38.51006
C11  22384723.07925    191447.95225     -2835.72325        30.96825                                                                
C23  22572193.19607   1543516.40207     -2713.83407        43.02307  22572014.22006    142104.67306     -2045.30106        36.66706
C25  25473921.27123    219881.85223     -4425.76623        18.58123                                                                
C28  23719984.89624   -116831.15524      1747.05924        26.77324  23719819.11104    -87178.44804      1315.10404        27.59404
C34  24040444.14706    240417.28606     -3728.40706        37.37006  24040268.46804    184804.63004     -2809.72604        26.70604
C37  23023220.45625    -31068.74925       492.47725        30.27225                                                                
C43  21605067.52324     91605.24924     -1349.67424        26.89624  21604894.84324     69302.87724     -1017.48224        23.73924
E02  23518162.21504    134445.93704     -1999.82704        27.93704  23517997.92905    102234.34505     -1492.84105        31.45505
E30  24422017.28904    -46455.69804       699.97304        29.34104                                                                
E34  25458320.37205   -116826.80505      1801.89605        31.63605  25458144.99304    -87252.87304      1345.46704        25.92004
E36  23714191.70705     48546.96405      -758.60605        32.98605  23714012.73124     35681.18924      -565.55324        25.69324
> 2023 07 14 05 58 00.9995542  0 20                      
G05  23701778.80023     50490.64023      -818.33323        23.15923                                                                
G16  21814128.99323   -101118.40323      1643.59723        18.81523                                                                
G18  21142993.81023    -50404.90423       710.36023        22.53323  21142798.64505    -37659.46205       531.29505        31.03605
G26  20268183.22906     24474.56006      -371.61906        40.04406  20268006.05106     19144.70206      -277.58106        36.63106
G29  22100180.16405    253127.95205     -3636.87405        32.88105                                                                
G31  21766709.02106    219454.71806     -3165.24806        40.17706                                                                
R22  20398491.01906    263653.21606     -3807.24606        37.69006
R13  19176873.02724     78802.83324     -1154.55324        24.03324
R23  19470147.99706    -39280.73006       536.53806        38.70006
C11  22385087.92625    194283.83525     -2836.71425        31.43125                                                                
C23  22572533.16007   1546230.43107     -2714.39107        42.83507  22572355.98306    144149.97806     -2045.79406        36.01506
C25  25474587.41023    224311.43523     -4425.89623        19.84023                                                                
C28  23719467.45424   -118576.36224      1747.65424        26.45424  23719303.46804    -88493.69904      1315.30304        28.64404
C34  24040984.07306    244145.68106     -3728.85306        38.29106  24040804.19804    187614.35504     -2809.84804        24.72804
C37  23022945.24725    -31561.47825       492.23925        30.79725                                                                
C43  21605142.77124     92954.97324     -1349.82724        28.23424  21604973.08823     70320.01023     -1020.18023        23.08523
E02  23518363.07604    136445.41304     -2000.02604        28.32304  23518199.68905    103727.47805     -1493.42705        30.75705
E30  24421701.00805    -47156.00805       700.33605        30.23605                                                                
E34  25457798.43305   -118628.81505      1801.98005        32.86105  25457623.95404    -88598.44604      1345.34904        26.67604
E36  23714158.73005     49305.57005      -759.18305        34.01405  23713976.75624     36247.75824      -566.32724        25.75124
> 2023 07 14 05 58 01.9995536  0 20                      
G05  23701752.71823     51313.54023      -817.53723        23.01323                                                                
G16  21813639.43223   -102766.15423      1644.67523        18.81423                                                                
G18  21142681.12624    -51115.65224       711.42524        24.52024  21142483.26305    -38190.29305       530.62105        30.11105
G26  20268078.30106     24846.47406      -372.04506        39.81306  20267897.52706     19422.47406      -277.93106        36.77806
G29  22100696.10605    256764.45405     -3636.71305        32.11005                                                                
G31  21767131.72806    222620.27206     -3165.47206        40.55506                                                                
R22  20399026.74806    267460.49106     -3807.79206        38.02606
R13  19176924.59124     79957.43624     -1155.98424        23.60024
R23  19469872.48806    -39816.89806       536.00906        39.00006
C11  22385449.17625    197119.93425     -2836.59925        31.44825                                                                
C23  22572874.32407   1548944.85307     -2714.15207        42.89907  22572696.54706    146195.62606     -2045.86306        35.54906
C25  25475251.45022    228738.11522     -4426.43222        15.29222                                                                
C28  23718951.51224   -120321.25624      1745.69724        26.00024  23718788.72404    -89808.68404      1314.82804        28.28604
C34  24041522.80006    247874.25506     -3729.04006        37.71106                                                                
C37  23022672.73525    -32053.77725       492.28425        30.90625                                                                
C43  21605222.21624     94305.21024     -1350.43424        29.14424  21605056.43123     71337.49723     -1019.47323        22.16323
E02  23518562.43804    138445.20004     -2000.33004        28.51704  23518400.25005    105220.80605     -1493.25805        31.19705
E30  24421393.42105    -47856.00805       700.10605        29.59405                                                                
E34  25457275.89505   -120430.53605      1802.06305        32.71005  25457101.11604    -89943.94504      1345.57404        27.27604
E36  23714124.85305     50064.62805      -759.26605        34.59605  23713941.38024     36814.73124      -567.52524        25.67324
> 2023 07 14 05 58 02.9995529  0 20                      
G05  23701698.15623     52132.87723      -816.82123        23.25423                                                                
G16  21813172.95523   -104416.57323      1644.28323        18.47723                                                                
G18  21142337.26423    -51826.46723       711.16023        22.81323  21142139.70104    -38720.70104       530.06904        28.39604
G26  20267939.49706     25218.73506      -372.59406        41.28406  20267758.42306     19700.42906      -278.13106        36.90506
G29  22101171.57705    260401.14005     -3637.05805        33.57405                                                                
G31  21767519.96006    225786.13406     -3166.22506        41.37706                                                                
R22  20399526.80106    271268.03006     -3807.63606        37.32806
R13  19176920.39423     81114.23523     -1156.16923        21.92323
R23  19469554.40806    -40352.48806       535.10306        37.39306
C11  22385791.23904    199956.65304     -2836.54104        28.83304                                                                
C23  22573189.10607   1551659.65707     -2715.10307        42.38707  22573008.93105    148241.49305     -2046.12105        33.57505
C25  25475884.91223    233168.34523     -4425.37623        19.70723                                                                
C28  23718406.78924   -122066.26524      1744.62024        25.32224  23718243.10204    -91123.70204      1314.85204        28.75404
C34  24042030.34906    251602.73806     -3728.57106        37.04906                                                                
C37  23022371.14405    -32545.67705       491.91205        30.46605                                                                
C43  21605278.27705     95656.15405     -1350.69605        32.26105  21605103.79824     72355.18924     -1018.18724        23.53524
E02  23518729.72204    140445.03904     -1999.67404        28.89304  23518571.13205    106714.22705     -1493.51205        31.02205
E30  24421051.35805    -48555.95405       699.96105        30.73505                                                                
E34  25456721.87805   -122232.16405      1801.34905        33.22505  25456545.90004    -91289.26604      1345.08004        29.19204
E36  23714057.99905     50824.02705      -759.76205        33.85605  23713876.02504     37381.74904      -567.02904        26.57704
> 2023 07 14 05 58 03.9995523  0 20                      
G05  23701672.97323     52957.05123      -818.96823        22.51823                                                                
G16  21812566.47423   -106054.36123      1639.58023        23.02023                                                                
G18  21142023.98124    -52532.48424       708.45024        24.08524  21141824.91924    -39250.55424       530.13924        23.92224
G26  20267825.87607     25591.76507      -373.53407        41.83307  20267648.99906     19979.01606      -278.76606        38.08606
G29  22101687.82025    264038.44725     -3637.95325        29.92825                                                                
G31  21767948.96307    228952.94207     -3167.00507        42.13607                                                                
R22  20400057.43406    275076.35806     -3809.43206        36.21406
R13  19176952.47223     82274.50223     -1154.41823        22.08823
R23  19469298.68506    -40887.02806       533.75306        39.20806
C11  22386125.80805    202793.40805     -2837.53405        31.89005                                                                
C23  22573531.76906   1554375.31006     -2715.89506        40.65206  22573350.69405    150287.97705     -2046.61105        31.41105
C25  25476559.14522    237585.16522     -4427.32022        14.65522                                                                
C28  23717903.43724   -123810.47724      1744.09624        27.43524  23717728.05904    -92438.22504      1314.43504        28.93204
C34  24042569.67525    255331.11225     -3729.35225        35.45625  24042376.30924    196041.23324     -2809.84124        25.25424
C37  23022075.24924    -33037.59324       493.24724        26.84924                                                                
C43  21605358.02205     97007.29205     -1351.50705        35.49505  21605181.44424     73373.47124     -1018.20224        26.19524
E02  23518948.27105    142445.52805     -2001.08705        29.83305  23518772.59305    108208.13905     -1494.52905        30.31005
E30  24420733.57824    -49255.63024       699.37924        26.82724                                                                
E34  25456190.64605   -124033.16605      1801.06505        34.15805  25456024.86105    -92634.19505      1344.85105        30.05305
E36  23714034.31605     51584.08305      -761.22305        34.97705  23713840.65004     37949.34804      -567.95204        27.85904
> 2023 07 14 05 58 04.9995516  0 19                      
G05  23701621.70923     53777.27123      -818.71023        23.01023                                                                
G16  21812035.84223   -107675.77323      1639.78323        21.99823                                                                
G18  21141676.22224    -53238.18824       708.67924        24.68824                                                                
G26  20267685.87307     25965.48607      -373.83207        41.53507  20267511.09406     20258.07506      -278.88706        38.56706
G29  22102159.69325    267675.59625     -3636.31025        29.87125                                                                
G31  21768337.49407    232120.31207     -3166.96207        42.25907                                                                
R22  20400567.68105    278885.26305     -3808.91705        33.61605
R13  19176963.86423     83436.52123     -1156.26223        23.08823
R23  19468976.70806    -41420.77906       533.65206        37.33806
C11  22386462.47505    205630.82605     -2837.78905        33.51705                                                                
C23  22573846.55106   1557091.47506     -2716.11806        41.03506  22573661.87905    152334.73105     -2045.98405        29.69905
C28  23717359.61424   -125554.53424      1744.53024        29.23624  23717184.83504    -93752.37104      1314.05404        28.08304
C34  24043073.92626    259060.35126     -3728.97526        40.44226  24042883.85824    198851.45124     -2810.90324        24.90824
C37  23021749.07524    -33528.09424       488.60424        26.18524                                                                
C43  21605408.08705     98359.00405     -1351.66505        35.47405  21605228.81104     74392.09604     -1018.61204        26.30104
E02  23519119.45205    144446.43705     -2001.00005        30.25705  23518945.57305    109702.26605     -1494.19705        29.81905
E30  24420367.83104    -49955.05804       699.96504        25.86504                                                                
E34  25455641.12605   -125833.73905      1800.66805        33.32805  25455473.84205    -93978.77805      1344.59005        30.61705
E36  23713965.66305     52344.60405      -760.77705        34.54405  23713775.29504     38517.37304      -568.00004        26.81604
> 2023 07 14 05 58 05.9995510  0 20                      
G05  23701596.22614     54597.91214      -819.52014        25.47914                                                                
G16  21811543.28323   -109315.07823      1639.01423        20.01823                                                                
G18  21141350.34824    -53946.87024       708.20824        25.68424                                                                
G20  24630748.08825    178833.99325     -2634.96125        30.15625                                                                
G26  20267576.44906     26339.74406      -374.32706        40.49606  20267401.07006     20537.54906      -279.45906        37.82906
G29  22102670.83925    271312.50725     -3638.23125        30.66125                                                                
G31  21768758.70207    235288.30407     -3167.70207        42.22707                                                                
R22  20401123.19614    282693.97614     -3803.81914        29.23914
R13  19177004.63624     84593.86324     -1158.90324        24.21924
R23  19468682.31205    -41953.58205       531.81105        33.61605
C11  22386825.52305    208468.30005     -2837.55005        31.39805                                                                
C23  22574186.51606   1559808.07306     -2716.65806        41.48306  22574002.74304    154382.11104     -2046.99204        28.93004
C28  23716855.36324   -127298.64624      1750.44324        25.61824  23716670.99004    -95066.41304      1313.59904        26.34404
C34  24043608.75627    262789.73127     -3729.49827        41.83427  24043419.58724    201661.88224     -2810.53224        25.40224
C37  23021488.55524    -34010.61924       486.09824        25.00124                                                                
C43  21605493.82805     99711.17505     -1352.00305        35.07405  21605305.85804     75411.17004     -1019.36704        27.69504
E02  23519323.01104    146447.78204     -2002.59004        29.17804  23519153.32905    111196.63405     -1494.35205        30.19205
E30  24420062.04304    -50653.87604       698.53004        27.62904                                                                
E34  25455120.08705   -127634.05505      1800.12005        32.36905  25454951.60405    -95323.23905      1344.47105        31.56905
E36  23713930.88705     53105.63505      -762.00605        32.31305  23713738.72004     39085.98504      -569.68504        25.63504
> 2023 07 14 05 58 06.9995504  0 20                      
G05  23701551.25714     55419.30514      -820.99714        26.65514                                                                
G16  21811029.43923   -110954.63723      1638.58223        19.24023                                                                
G18  21141018.17805    -54654.62505       707.70205        29.55605  21140843.69823    -40849.23423       528.59023        22.46723
G20  24631076.96005    181469.58105     -2635.06205        30.73205                                                                
G26  20267472.12106     26714.42106      -375.15006        39.67906  20267292.54506     20817.35106      -279.92006        37.25106
G29  22103183.18505    274950.46205     -3638.09705        32.96705                                                                
G31  21769183.80807    238456.64007     -3168.49507        42.55307                                                                
R22  20401713.78724    286500.97124     -3806.05024        23.90724
R13  19177035.21524     85750.24324     -1159.52324        24.05024
R23  19468414.29724    -42485.74324       533.05124        29.05124
C11  22387198.76525    211305.84125     -2837.99625        29.70025                                                                
C23  22574526.48107   1562524.99207     -2717.06507        42.64007  22574343.30705    156429.55605     -2047.38105        29.72105
C28  23716337.32123   -129049.79823      1751.50323        20.76223  23716157.44604    -96380.45004      1313.75204        24.51504
C34  24044145.38527    266519.34827     -3729.57027        41.59827  24043955.01624    204472.50424     -2810.56824        25.86024
C37  23021217.84324    -34500.52624       489.69424        27.27524                                                                
C43  21605575.67105    101063.72205     -1352.75905        35.15005  21605386.20204     76430.38504     -1019.46104        28.10904
E02  23519523.57304    148449.11004     -2000.77804        26.30504  23519352.69105    112691.34805     -1494.75205        30.84505
E30  24419754.75604    -51352.61004       698.67004        28.54204                                                                
E34  25454611.93905   -129434.62105      1801.11305        31.01005  25454428.76605    -96667.73805      1344.80505        31.46005
E36  23713893.11305     53867.22005      -761.72905        29.98805  23713704.24424     39654.65724      -567.64724        24.03024
> 2023 07 14 05 58 07.9995497  0 19                      
G05  23701481.10614     56241.68414      -823.22014        25.83714                                                                
G16  21810542.57623   -112596.22723      1637.36223        19.09723                                                                
G18  21140677.61305    -55361.76905       707.35005        29.87805  21140499.83724    -41377.20324       527.74224        24.72724
G20  24631368.35905    184105.28205     -2635.78805        31.15805                                                                
G26  20267332.41806     27089.68306      -375.61206        40.86406  20267154.04106     21097.56606      -280.30606        37.27006
G29  22103663.45205    278588.72205     -3638.34105        32.55505                                                                
G31  21769574.73706    241625.51606     -3169.09106        41.11106                                                                
R13  19177034.31524     86910.43724     -1161.51624        25.14624
R23  19468083.02724    -43011.53424       532.41524        27.44824
C11  22387533.33324    214144.09924     -2837.77924        29.21224                                                                
C23  22574839.16407   1565242.36607     -2717.54807        42.70307  22574655.39105    158477.45905     -2048.13205        30.04305
C28  23715789.60023   -130806.54523      1751.36223        18.00323  23715612.42304    -97694.17504      1313.91804        24.22104
C34  24044649.33627    270249.16827     -3729.95527        42.01427  24044460.46624    207283.39324     -2810.34224        25.42224
C37  23020908.75624    -34989.90424       493.00524        27.04724                                                                
C43  21605628.43506    102416.70806     -1353.16206        35.64206  21605436.26804     77449.99304     -1019.13004        27.98204
E02  23519701.35004    150451.12004     -2002.52404        24.58104  23519524.47205    114186.26605     -1495.12905        31.52905
E30  24419406.99604    -52051.10904       698.63004        28.39504                                                                
E34  25454055.52405   -131234.60805      1799.81905        29.66305  25453877.14805    -98011.93305      1344.42005        31.92005
E36  23713821.46304     54629.37104      -762.72804        29.38504  23713638.29013     40223.76213      -569.66413        23.03613
> 2023 07 14 05 58 08.9995491  0 20                      
G05  23701451.12724     57064.47924      -825.54724        26.39124                                                                
G16  21810046.71923   -114237.54923      1639.99923        18.32323                                                                
G18  21140356.23605    -56068.23105       705.95905        29.70805  21140185.95424    -41904.82024       526.81124        24.85124
G20  24631686.43805    186741.43205     -2636.01405        31.41505                                                                
G26  20267221.79406     27465.45806      -376.25506        41.31106  20267046.41606     21378.18506      -280.83706        37.03706
G29  22104175.19805    282227.23005     -3638.41705        32.01605                                                                
G31  21769998.04406    244794.96406     -3169.59206        40.67706                                                                
R22  20402686.31423    294109.25423     -3804.38923        19.53823
R13  19177074.48824     88071.28424     -1161.81624        24.40724
R23  19467841.39414    -43542.38614       530.49814        26.91414
C11  22387896.08204    216983.38504     -2838.77004        29.25904                                                                
C23  22575181.22707   1567960.24907     -2718.13907        42.96907  22574997.45405    160525.62305     -2048.43205        30.47505
C34  24045187.76307    273979.21907     -3730.21207        42.49807  24044996.49524    210094.34124     -2811.01424        24.53724
C37  23020640.44224    -35478.80724       488.31324        26.07424                                                                
C43  21605706.98005    103770.12705     -1353.46105        35.46505  21605516.61204     78470.03004     -1020.63504        27.49504
C28                                                                  23715097.68004    -99007.66604      1313.08404        24.13904
E02  23519910.90403    152453.30703     -2002.61103        23.30503  23519726.53205    115681.46205     -1495.41505        31.48705
E30  24419098.81004    -52749.29004       697.90904        29.38504                                                                
E34  25453534.78505   -133034.49505      1800.06605        29.71805  25453354.60905    -99355.92905      1344.06705        31.70605
E36  23713788.18604     55392.00804      -763.35004        27.81104  23713602.31524     40793.13624      -570.18624        23.53524
> 2023 07 14 05 58 09.9995484  0 19                      
G05  23701396.26524     57887.91324      -826.72324        26.78124                                                                
G18  21140019.86905    -56774.35005       705.81405        29.94505  21139841.19224    -42432.14124       527.05324        25.92224
G20  24631973.93905    189378.14105     -2636.78505        30.89005                                                                
G26  20267084.48906     27841.69506      -376.71506        40.58506  20266907.01206     21659.12206      -281.24206        35.95906
G29  22104658.76305    285865.86605     -3638.26405        30.09105                                                                
G31  21770389.27306    247964.75306     -3169.81706        40.53406                                                                
R22  20403195.06223    297906.67723     -3804.59323        20.11523
R13  19177082.88223     89237.31923     -1162.17423        23.42323
R23  19467544.89924    -44072.37524       529.03124        28.31524
C11  22388233.94805    219822.30905     -2839.12105        30.49005                                                                
C23  22575492.41207   1570678.42107     -2718.20507        43.65107  22575310.13805    162574.00505     -2048.04105        31.78805
C34  24045692.91307    277709.23507     -3730.00307        42.12707  24045502.84523    212905.21623     -2809.85423        22.59623
C37  23020337.05224    -35967.48724       489.60524        23.76124                                                                
C43  21605757.94505    105123.92105     -1354.02005        35.00605  21605566.07804     79490.20004     -1020.19304        27.13204
C28                                                                  23714554.15624   -100321.13424      1312.76124        23.77124
E02  23520076.09024    154455.68824     -2003.03624        23.56224  23519897.71405    117176.73805     -1495.19405        31.02905
E30  24418752.54904    -53447.40004       697.66804        28.01404                                                                
E34  25452985.26514   -134834.12714      1799.58014        27.96314  25452802.39205   -100699.90405      1344.03605        31.88805
E36  23713722.23204     56154.81204      -763.31104        26.24004  23713538.15924     41362.88724      -569.83724        25.00524
> 2023 07 14 05 58 10.9995478  0 19                      
G05  23701381.57524     58711.75824      -824.22824        28.76624                                                                
G18  21139708.08505    -57479.99205       705.36905        30.90805  21139527.01024    -42959.18424       526.94924        25.97324
G20  24632299.21405    192015.26105     -2637.37905        29.73305                                                                
G26  20266977.46306     28218.24706      -377.12406        39.31206  20266799.08705     21940.34605      -281.53305        35.44605
G29  22105182.80024    289505.02024     -3641.66524        26.82624                                                                
G31  21770816.17806    251135.03506     -3170.63906        39.49906                                                                
R22  20403727.79322    301711.56122     -3806.56722        14.79222
R13  19177109.56323     90409.38523     -1164.95423        21.34623
R23  19467229.21825    -44601.95825       529.28025        32.01525
C11  22388594.29905    222661.48605     -2839.22405        30.45905                                                                
C23  22575834.77507   1573396.97807     -2718.59407        43.53707  22575652.50105    164622.70905     -2048.71105        32.62705
C28  23714242.37222   -136032.18322      1742.43122        14.87322  23714037.01404   -101634.32004      1312.12504        24.40904
C34  24046227.44306    281439.37706     -3730.19506        41.17306  24046039.17323    215716.31423     -2811.59223        21.26023
C37  23020065.74024    -36455.65024       488.63024        24.03724                                                                
C43  21605838.28906    106477.96406     -1354.39506        35.83906  21605646.72204     80510.69204     -1021.13904        26.67604
E02  23520285.34504    156458.24204     -2002.40304        24.08004  23520097.67505    118672.32405     -1495.88405        30.63405
E30  24418439.86604    -54145.34904       697.63404        25.45304                                                                
E34  25452462.42724   -136633.76324      1799.32224        25.17624  25452279.55405   -102043.72305      1343.79305        31.89705
E36  23713688.95504     56918.18904      -763.29904        27.73504  23713503.98324     41932.79224      -569.48024        24.73324
> 2023 07 14 05 58 11.9995472  0 19                      
G05  23701368.98424     59536.31424      -824.81024        28.95824                                                                
G18  21139393.30305    -58185.06505       704.55905        31.25305  21139213.72704    -43485.64404       526.37004        26.78604
G20  24632620.89104    194652.75604     -2637.79504        28.95604                                                                
G26  20266867.73906     28595.12406      -377.06706        39.21906  20266690.86205     22221.73905      -281.35605        34.91005
G29  22105688.85024    293152.15724     -3643.03124        25.35024                                                                
G31  21771243.08206    254305.59806     -3170.46706        40.32206                                                                
R22  20404263.22323    305520.39023     -3809.63123        21.64523
R13  19177149.13623     91574.17423     -1164.83023        18.81923
R23  19466946.81325    -45130.95725       528.29525        32.70325
C11  22388953.45005    225500.69205     -2839.43305        30.13105                                                                
C23  22576176.53807   1576115.76307     -2718.76807        43.34207  22575994.26405    166671.68205     -2049.13405        32.94405
C28  23713748.91322   -137773.07622      1742.43122        13.59422  23713522.57023   -102947.91723      1315.04123        23.25923
C34  24046763.17206    285169.55506     -3730.10706        40.73706  24046575.80223    218527.44323     -2810.33523        22.93123
C37  23019794.42823    -36946.30723       490.00823        22.60723                                                                
C43  21605917.73405    107832.26605     -1354.41605        35.18105  21605726.16704     81531.28404     -1020.19304        26.95504
E02  23520494.00104    158460.97604     -2002.44604        24.37804  23520298.83605    120167.79305     -1495.39005        31.07105
E30  24418126.88323    -54843.37623       697.83323        23.23223  24417958.99923    -40494.77223       521.75123        22.50323
E34  25451936.29124   -138433.46424      1799.76624        24.20024  25451757.61505   -103387.48005      1343.57405        32.14705
E36  23713651.48104     57681.73304      -763.94904        27.31604  23713469.20724     42503.03224      -570.37024        24.60824
> 2023 07 14 05 58 12.9995465  0 19                      
G05  23701326.11304     60361.29104      -825.66104        28.46604                                                                
G18  21139052.43905    -58889.86505       703.89605        30.64005  21138869.86504    -44011.89704       525.72404        28.44404
G20  24632903.89505    197290.63105     -2638.51205        29.95705                                                                
G26  20266730.73406     28972.45406      -377.78306        39.64706  20266552.95705     22503.63505      -282.95905        34.08105
G29  22106177.81224    296786.62324     -3637.12124        24.71824                                                                
G31  21771637.30906    257476.64406     -3171.72806        39.85206                                                                
R22  20404768.67323    309333.01623     -3811.76323        23.42223
R13  19177149.73523     92738.84523     -1164.87323        19.92823
R23  19466630.23225    -45659.36725       527.73425        33.41825
C11  22389290.11705    228340.15705     -2839.91905        29.75705                                                                
C23  22576488.02307   1578834.90007     -2719.55307        42.77707  22576306.64805    168720.81105     -2049.76205        34.60805
C34  24047269.82206    288899.76206     -3730.81806        40.82206  24047083.05124    221338.38524     -2810.88424        24.92224
C37  23019491.63823    -37442.96223       489.62523        21.18323                                                                
C43  21605967.50005    109186.97005     -1355.31005        35.22005  21605776.23204     82552.20104     -1021.61204        27.48704
C28                                                                  23712976.64824   -104260.83224      1310.94824        24.07124
E02  23520671.77804    160464.02204     -2004.30304        23.69804  23520469.41805    121663.56505     -1496.21105        31.21805
E30  24417781.82104    -55541.11604       696.77304        24.71304  24417610.04023    -41030.43323       521.19623        22.63023
E34  25451382.57423   -140232.79623      1799.44623        23.43223  25451205.39705   -104731.16905      1343.07205        31.81605
E36  23713582.82804     58445.59104      -764.23404        24.39504  23713405.65124     43073.57424      -570.94924        25.88724
> 2023 07 14 05 58 13.9995459  0 20                      
G05  23701308.12604     61187.03704      -825.71604        28.05204                                                                
G16  21807544.95114   -122429.83614      1635.44714        25.52314                                                                
G18  21138735.55805    -59593.95905       703.75705        30.90905  21138556.28204    -44537.66004       525.15804        28.24704
G20  24633230.96905    199929.13805     -2639.32905        30.57205                                                                
G26  20266621.31006     29350.31406      -377.77306        39.49806  20266445.03205     22785.73105      -282.48105        34.54505
G29  22106697.05224    300423.65424     -3639.96724        25.76324                                                                
G31  21772055.22006    260648.15406     -3171.79906        38.92906                                                                
R22  20405302.00323    313149.06523     -3812.34123        22.52523
R13  19177191.10723     93905.19223     -1166.09923        20.34323
R23  19466346.02925    -46186.96225       527.13025        32.97425
C11  22389657.36325    231179.57325     -2840.08625        29.95225                                                                
C23  22576829.78607   1581554.57007     -2720.02407        42.68007  22576649.61105    170770.31505     -2049.62805        34.79405
C34  24047806.75006    292630.16006     -3730.58706        40.46206  24047619.38024    224149.75524     -2811.65624        24.62224
C37  23019216.72823    -37935.25223       488.89723        22.05623                                                                
C43  21606047.24505    110542.07905     -1355.44905        35.17005  21605857.17604     83573.34304     -1020.64804        27.20704
C28                                                                  23712461.00524   -105573.88924      1313.18724        23.65524
E02  23520874.13803    162467.30703     -2003.91303        23.38103  23520670.57905    123159.53305     -1495.95105        30.91305
E30  24417463.74204    -56238.73004       697.33104        24.58604  24417297.65723    -41571.10123       519.76323        22.94223
E34  25450858.53723   -142030.42223      1798.19423        22.90323  25450682.85905   -106074.67005      1343.37405        31.02105
E36  23713545.35423     59210.13623      -764.46223        22.36723  23713371.47524     43644.40824      -571.38024        25.49324
> 2023 07 14 05 58 14.9995453  0 20                      
G05  23701291.03814     62013.66614      -828.65214        26.85214                                                                
G16  21807059.58714   -124067.10614      1635.08214        25.49414                                                                
G18  21138420.47605    -60297.40205       703.48505        31.12305  21138242.99904    -45062.93904       524.78304        28.36304
G20  24633558.34205    202568.11505     -2638.89905        30.16405                                                                
G26  20266514.58406     29728.81706      -378.27606        39.36506  20266337.10705     23068.38505      -282.96805        34.96005
G29  22107212.99524    304070.54624     -3639.76224        28.62924                                                                
G31  21772480.92506    263820.34106     -3172.29106        38.73106                                                                
R22  20405830.53724    316967.09724     -3811.41624        24.01524
R13  19177207.59523     95077.23623     -1168.14423        19.63823
R23  19466076.21625    -46713.82225       527.14525        32.14825
C11  22390024.00905    234020.38905     -2840.27705        30.49105                                                                
C23  22577173.94807   1584274.76507     -2720.35307        42.52107  22576991.97405    172820.26705     -2049.82005        34.63605
C34  24048344.87706    296360.86506     -3730.59006        39.45006  24048156.00824    226961.21024     -2811.00624        25.45024
C37  23018943.01723    -38427.46823       487.91023        20.83523                                                                
C43  21606127.28905    111897.74305     -1355.47405        34.82605  21605937.52104     84595.09404     -1022.31804        27.17504
C28                                                                  23711949.55904   -106886.51504      1312.54804        24.48704
E02  23521079.49523    164470.97023     -2004.93023        22.87323  23520871.73905    124655.89305     -1496.79505        30.93105
E30  24417154.35623    -56935.90123       697.17323        23.00323  24416985.57323    -42101.56723       519.48023        22.22623
E34  25450335.69924   -143819.73924      1798.06824        23.65324  25450160.32105   -107417.92905      1343.23405        30.59405
E36  23713507.88023     59973.66823      -765.12123        21.13623  23713336.99824     44215.57924      -570.66924        25.22824
> 2023 07 14 05 58 15.9995446  0 20                      
G05  23701235.87624     62841.19724      -829.24324        24.26224                                                                
G16  21806532.25224   -125704.22424      1636.69524        27.44224                                                                
G18  21138084.10905    -61000.36605       702.73805        31.39805  21137899.73704    -45587.93004       525.22404        28.95304
G20  24633849.74104    205207.79104     -2640.38604        29.17704                                                                
G26  20266375.18006     30107.73406      -379.11906        38.59606  20266199.20205     23351.28805      -282.84705        35.27805
G29  22107697.16025    307710.36425     -3640.14825        30.96125                                                                
G31  21772873.05406    266992.88206     -3172.63206        38.54906                                                                
R22  20406321.29814    320781.36714     -3811.36014        24.80014
R13  19177212.69223     96254.18123     -1167.38923        17.51723
R23  19465772.82625    -47239.86225       525.81225        31.88425
C11  22390360.07625    236860.33425     -2840.34825        30.85825                                                                
C23  22577483.03407   1586995.24107     -2720.51107        42.11507  22577304.65705    174870.47805     -2050.47705        34.97105
C34  24048852.12606    300091.74706     -3731.26606        37.91206  24048662.65724    229772.74524     -2811.48024        25.63324
C37  23018636.92923    -38919.59123       487.12923        21.04823                                                                
C43  21606176.45505    113253.76205     -1356.33505        34.13505  21605988.78504     85616.87804     -1021.92004        26.75504
C28                                                                  23711403.33704   -108199.15004      1312.80004        25.10504
E02  23521256.67303    166474.96103     -2004.34903        21.56603  23521042.32105    126152.37005     -1497.09505        30.96505
E30  24416807.79623    -57632.89823       696.12423        21.22323  24416642.91023    -42622.05723       520.39623        22.06723
E34  25449783.78124   -145600.05824      1798.65024        25.15324  25449608.10305   -108761.09205      1342.98705        30.20205
E36  23713442.22623     60734.37523      -765.27623        20.77823  23713273.74204     44787.15104      -571.34304        26.75704
> 2023 07 14 05 58 16.9995440  0 20                      
G05  23701206.79623     63668.11823      -829.63523        19.40223                                                                
G16  21806045.38914   -127340.48814      1638.59814        25.25314                                                                
G18  21137768.12805    -61702.39305       701.70505        31.54805  21137585.85404    -46112.18004       523.82904        28.11704
G20  24634163.32404    207848.16404     -2640.46904        28.99504                                                                
G26  20266271.45207     30487.43507      -379.96307        41.75707  20266091.87705     23634.86005      -283.62105        35.45705
G29  22108210.40415    311350.77715     -3640.76715        29.79115                                                                
G31  21773298.75907    270166.29207     -3173.73007        42.11507                                                                
R22  20406809.36023    324597.86123     -3812.22123        22.28523
R13  19177140.14223     97426.44923     -1168.51323        18.56423
R23  19465516.20426    -47765.21526       524.45726        35.75526
C11  22390724.32425    239701.59025     -2841.86525        31.84325                                                                
C23  22577826.89607   1589716.58407     -2721.63307        41.57907  22577647.62005    176921.22505     -2050.89805        32.51305
C34  24049387.25606    303822.95506     -3731.04806        38.91706  24049199.28624    232584.68224     -2811.93524        25.83724
C37  23018367.41623    -39404.68123       485.24423        20.37023                                                                
C43  21606259.49805    114610.53105     -1357.07405        34.37905  21606069.42904     86639.28204     -1022.27104        25.59604
C28                                                                  23710890.69204   -109511.41404      1312.69004        25.67904
E02  23521452.13804    168479.80204     -2005.19404        25.13504  23521245.28105    127649.31405     -1496.96005        29.94005
E30  24416500.80804    -58329.82104       696.62204        24.85404                                                                
E34  25449259.14524   -147388.32624      1798.22024        29.24924  25449085.26505   -110103.79905      1342.54805        30.68505
E36  23713411.04724     61492.28824      -766.38024        24.04124  23713240.76504     45359.30704      -572.38004        25.99604
> 2023 07 14 05 58 17.9995433  0 19                      
G16  21805526.44823   -128981.39823      1641.47623        23.20623                                                                
G18  21137418.86905    -62403.50905       700.41205        31.00905  21137241.99204    -46635.77104       523.33304        27.12704
G20  24634465.51404    210489.31204     -2641.56904        29.34704                                                                
G26  20266137.44507     30867.97307      -380.99607        42.23707  20265955.17106     23919.07406      -284.56606        36.30206
G29  22108704.46224    314991.75824     -3641.36024        29.09324                                                                
G31  21773695.68407    273340.54907     -3174.91207        42.61107                                                                
R22  20407324.70323    328416.57723     -3811.95623        19.72923
R13  19177160.22823     98537.33423     -1166.17523        18.56023
R23  19465200.82226    -48289.27526       523.51326        37.94726
C11  22391063.68925    242543.31925     -2841.81525        32.58525                                                                
C23  22578138.38006   1592438.61806     -2722.77306        40.91706  22577960.30305    178972.58105     -2051.94005        29.94805
C28  23710532.14024   -148227.92624      1740.46124        25.71824  23710347.46804   -110823.08804      1311.52304        26.25504
C34  24049894.50406    307554.70606     -3732.01406        38.55506  24049705.33524    235396.84924     -2812.08224        26.29324
C37  23018056.83122    -39883.36122       485.62522        15.31822                                                                
C43  21606308.06405    115968.02405     -1357.73305        34.25505  21606118.59504     87662.29504     -1023.24404        25.99104
E02  23521616.72424    170484.92724     -2005.32524        25.19424  23521416.46204    129146.79204     -1497.73104        29.02204
E30  24416158.44504    -59026.03104       695.87604        26.19304                                                                
E34  25448703.92905   -149185.80205      1797.02405        30.77505  25448533.34705   -111446.13805      1341.99005        29.95905
E36  23713351.38824     62247.54524      -767.17224        26.45724  23713176.60904     45932.03904      -573.10404        25.80204
> 2023 07 14 05 58 18.9995427  0 19                      
G16  21805032.99023   -130625.17923      1640.06523        19.72123                                                                
G18  21137114.58005    -63104.25405       700.52805        29.93105  21136931.10704    -47159.10104       523.61804        27.38304
G20  24634789.59004    213130.90604     -2641.95104        29.29104                                                                
G26  20266027.42107     31248.84107      -380.75207        42.46007  20265848.44506     24203.53506      -284.66306        36.57806
G29  22109223.10304    318632.72504     -3640.44104        28.90004                                                                
G31  21774120.49007    276515.14207     -3174.66207        43.13507                                                                
R22  20407977.95114    332233.36714     -3817.29414        27.10014
R13  19177306.52723     99704.68123     -1167.15023        19.54423
R23  19464922.01506    -48812.25706       523.30506        40.39706
C11  22391431.23525    245385.25325     -2841.94425        32.22125                                                                
C23  22578480.44306   1595160.93806     -2722.56906        37.52906  22578303.86504    181023.89504     -2049.90804        26.15004
C28  23710026.69024   -149969.53924      1740.76124        26.85324  23709835.72204   -112134.73704      1311.87004        26.17104
C34  24050428.13506    311286.41506     -3731.55206        39.14606  24050243.16304    238209.06104     -2811.91504        27.27004
C37  23017779.22322    -40368.77822       484.99322        16.96522                                                                
C43  21606388.70805    117325.69705     -1357.19605        32.69305  21606199.53904     88685.41404     -1023.41904        25.82104
E02  23521778.01205    172490.33605     -2005.45605        30.48305  23521618.52204    130644.29604     -1497.83104        27.25104
E30  24415845.16204    -59721.99504       695.91104        25.73204                                                                
E34  25448183.78905   -150983.25105      1797.24105        32.21005  25448012.00805   -112788.36205      1342.03505        29.71505
E36  23713322.30924     63004.32024      -767.21324        28.85324  23713145.13124     46505.00024      -574.34324        25.23624
> 2023 07 14 05 58 19.9995421  0 20                      
G05  23701129.45014     66150.77214      -830.19214        26.65214                                                                
G16  21804542.52922   -132269.79322      1640.53322        17.21122                                                                
G18  21136805.19404    -63805.12804       700.66404        29.10004  21136618.72304    -47682.36804       523.26504        28.05204
G20  24635115.46404    215772.39504     -2641.97104        29.15104                                                                
G26  20265920.39507     31629.65207      -380.87407        42.59507  20265740.82006     24487.88706      -284.63506        36.85206
G29  22109742.64405    322273.46305     -3640.95605        29.51005                                                                
G31  21774544.09707    279689.63807     -3174.77507        43.43007                                                                
R22  20408485.79924    336049.42324     -3817.17924        29.36724
R13  19177202.79923    100873.82423     -1167.63723        21.83023
R23  19464640.21006    -49335.62906       523.20706        40.92106
C11  22391792.48525    248226.91825     -2842.08225        31.65925                                                                
C23  22578822.80605   1597882.96705     -2721.61405        35.49805  22578646.52824    183075.47624     -2053.10224        23.67824
C28  23709503.85224   -151710.49724      1741.37724        27.52724  23709320.67904   -113446.81704      1312.87004        24.90504
C34  24050962.36506    315017.69506     -3731.07306        39.33906  24050779.49204    241021.07904     -2811.98304        27.05004
C37  23017520.20222    -40859.58622       485.84622        17.32022                                                                
C43  21606466.95405    118683.30505     -1357.65305        31.88905  21606282.28204     89708.43604     -1022.89304        25.92104
E02  23521979.77205    174495.37405     -2005.26305        32.63605  23521821.18204    132141.63704     -1497.67204        26.41504
E30  24415532.47904    -60418.51504       696.68504        24.56304                                                                
E34  25447658.85205   -152781.13605      1797.85105        32.83305  25447489.47005   -114130.98005      1342.92405        29.98905
E36  23713282.73625     63771.04725      -767.17625        30.17425  23713110.05623     47077.62523      -573.62823        23.35223
> 2023 07 14 05 58 20.9995414  0 19                      
G05  23701080.28424     66981.23124      -830.32524        28.92524                                                                
G18  21136459.83304    -64505.00704       699.73204        28.58004  21136276.96004    -48205.09704       522.59304        28.61604
G20  24635399.96704    218414.64604     -2642.85304        28.32504                                                                
G26  20265783.69007     32011.17407      -381.66407        41.99507  20265603.81406     24772.79306      -285.05806        36.76706
G29  22110230.70604    325914.64704     -3640.52904        28.85304                                                                
G31  21774936.82507    282864.91407     -3175.26007        44.69807                                                                
R22  20408979.25825    339866.00425     -3816.62025        30.49225
R13  19177273.85023    102040.14223     -1166.98823        22.74623
R23  19464337.12007    -49858.02707       522.25707        41.88907
C11  22392130.65105    251069.52305     -2842.20605        30.86305                                                                
C23  22579132.79205   1600605.96405     -2723.31905        33.20205  22578959.81123    185127.25223     -2050.25423        22.40523
C28  23708965.42504   -153450.28804      1740.10404        27.57004  23708775.35604   -114758.29504      1311.46704        24.94604
C34  24051469.61406    318749.37406     -3731.83106        39.39706  24051287.04004    243833.27504     -2812.47604        27.81404
C37  23017196.42624    -41344.98424       483.98124        23.79224                                                                
C43  21606516.72005    120041.49805     -1358.26705        30.25805  21606332.04804     90732.02604     -1023.70704        26.65904
E02  23522150.05405    176500.98905     -2005.89105        33.97105  23521994.16204    133639.32904     -1497.91004        25.84204
E30  24415190.11623    -61114.45123       695.94123        23.07823                                                                
E34  25447109.93205   -154578.47105      1797.62305        34.34605  25446937.55205   -115473.15005      1342.20505        30.15605
E36  23713214.98305     64538.81205      -767.74605        30.04305  23713046.79904     47650.89704      -572.80404        24.72204
> 2023 07 14 05 58 21.9995408  0 19                      
G05  23701052.10324     67812.35024      -831.30124        29.13524                                                                
G18  21136147.74905    -65204.37705       699.31905        30.36805  21135963.07704    -48727.32504       522.11604        28.64704
G20  24635729.73914    221057.47814     -2642.95514        26.98614                                                                
G26  20265675.16507     32393.31207      -382.00007        43.10707  20265497.08806     25058.09006      -285.07906        37.39906
G29  22110737.05504    329556.04504     -3641.40904        27.67704                                                                
G31  21775358.93307    286040.74507     -3175.71207        43.32107                                                                
R22  20409540.76924    343682.62324     -3817.41224        27.78024
R13  19177352.69524    103212.64224     -1168.29324        24.15524
R23  19464055.61507    -50379.61207       521.72807        41.90607
C11  22392494.59904    253911.98304     -2841.72804        29.41104                                                                
C23  22579480.25106   1603329.28406     -2723.11306        35.93406  22579302.17424    187179.82324     -2052.17824        24.91724
C28  23708441.08824   -155190.90724      1741.30224        26.70124  23708263.01104   -116069.72004      1311.67204        26.37004
C34  24052010.44006    322481.24206     -3731.77906        37.71406  24051823.36904    246645.68404     -2812.27704        26.20604
C37  23016929.01224    -41829.00024       486.76824        23.52524                                                                
C43  21606592.26725    121399.67525     -1358.55225        32.70925  21606413.89104     91755.87804     -1023.29104        27.79304
E02  23522352.11405    178506.88505     -2005.89905        31.99105  23522195.92304    135137.04104     -1497.72204        27.13304
E30  24414878.03204    -61810.08904       695.55504        25.86304                                                                
E34  25446589.19305   -156375.59505      1797.38905        35.15105  25446416.51205   -116815.11505      1342.48805        30.19705
E36  23713183.80405     65307.02405      -768.30305        29.78605  23713012.32304     48224.68204      -573.86704        25.74504
> 2023 07 14 05 58 22.9995401  0 19                      
G05  23700991.84524     68644.43224      -832.97324        28.89224                                                                
G18  21135797.89204    -65902.96404       697.84804        29.38804  21135619.81504    -49249.00204       521.11104        29.46404
G20  24636024.73524    223700.41024     -2640.70224        25.78424                                                                
G26  20265535.16207     32776.10407      -383.14707        43.33607  20265360.08306     25343.97206      -286.35806        38.12306
G29  22111235.61014    333198.03414     -3637.07714        24.61114                                                                
G31  21775756.15807    289217.26807     -3176.93107        43.41307                                                                
R22  20410019.83724    347497.68124     -3816.88724        27.25224
R13  19177417.45024    104384.11524     -1170.25924        26.07224
R23  19463749.22706    -50900.29206       519.95706        41.16506
C11  22392838.16105    256755.10305     -2843.57105        30.20605                                                                
C23  22579794.73306   1606053.24406     -2724.44006        35.89306  22579615.45724    189232.68524     -2053.11724        25.80524
C28  23707901.76124   -156930.64624      1740.13124        25.10724  23707719.18804   -117380.75704      1310.76504        27.61204
C34  24052511.39306    326213.50806     -3732.63106        40.61106  24052331.21824    249458.32824     -2811.39524        23.93424
C37  23016629.81923    -42311.89523       486.32823        22.77523                                                                
C43  21606642.33325    122758.96025     -1359.70425        32.38325  21606464.85604     92780.27504     -1024.69004        28.22704
E02  23522523.29605    180513.28305     -2006.63805        30.91205  23522365.30504    136635.40104     -1498.61304        27.46004
E30  24414536.26804    -62505.38804       695.10904        26.51904                                                                
E34  25446034.87706   -158172.23306      1796.38506        35.53206  25445863.99505   -118156.74405      1341.36905        30.02505
E36  23713119.34904     66075.94904      -769.11804        28.72604  23712949.96604     48798.83304      -574.28404        26.02404
> 2023 07 14 05 58 23.9995395  0 19                      
G05  23700954.67124     69477.21224      -833.62724        28.07624                                                                
G18  21135485.50804    -66600.80204       697.40604        28.83704  21135307.73104    -49770.10704       520.89504        29.19604
G20  24636357.80424    226345.45024     -2645.92524        24.80324                                                                
G26  20265428.73607     33159.61507      -383.81807        43.24207  20265252.75706     25630.35906      -286.82306        38.79406
G29  22111756.94923    336840.30823     -3638.86823        22.82523                                                                
G31  21776177.66607    292394.52307     -3177.66107        43.45107                                                                
R22  20410580.74924    351316.47124     -3820.34024        27.82924
R13  19177467.81514    105557.19314     -1173.27214        26.92714
R23  19463474.31707    -51420.10007       519.40707        41.59507
C11  22393207.20504    259598.76304     -2844.70504        29.28904                                                                
C23  22580137.69606   1608777.70806     -2724.40706        35.58406  22579958.72024    191285.62724     -2053.12224        24.86324
C28  23707394.51224   -158670.04224      1739.05024        26.40024  23707206.54204   -118691.48104      1310.75604        27.37904
C34  24053048.32106    329946.19106     -3733.40206        40.47506  24052868.44624    252271.34724     -2812.35924        23.77524
C37  23016360.00624    -42794.27524       484.86824        25.33524                                                                
C43  21606723.27725    124118.88425     -1360.61025        31.50925  21606545.80004     93805.06904     -1025.22004        29.05604
E02  23522725.65605    182520.30805     -2007.94505        30.45105  23522566.16604    138134.11904     -1499.09204        27.57304
E30  24414221.18604    -63200.31904       693.91304        25.46404                                                                
E34  25445515.03606   -159968.46206      1795.84506        35.80706  25445342.05604   -119498.10804      1341.13804        29.35704
E36  23713086.97105     66845.64405      -770.84205        29.66505  23712916.68904     49373.49804      -575.08804        26.30504
> 2023 07 14 05 58 24.9995389  0 19                      
G05  23700928.58924     70314.50724      -836.45324        25.43624                                                                
G18  21135165.03004    -67297.71104       696.91804        28.79304  21134995.94704    -50290.63104       520.45504        28.00304
G20  24636668.98924    228990.63024     -2648.22124        24.51824                                                                
G26  20265321.11006     33543.97106      -384.37906        41.17506  20265145.43206     25917.29606      -287.07106        38.56706
G29  22112209.03606    340483.32306     -3642.77506        35.86906                                                                
G31  21776606.06907    295572.29707     -3178.26907        41.80707                                                                
R22  20411047.22625    355136.23125     -3819.35525        30.71725
R13  19177496.89514    106730.54814     -1173.34914        25.57114
R23  19463193.41206    -51938.97906       518.61506        40.22806
C11  22393581.94624    262448.02524     -2845.09124        28.97624                                                                
C23  22580487.55406   1611502.90106     -2725.36806        40.78606  22580301.68224    193338.64824     -2054.19024        26.36624
C28  23706867.47724   -160408.94224      1738.53324        27.83224  23706688.50104   -120001.92504      1309.60704        26.55804
C34  24053591.24526    333678.40626     -3732.52026        37.22726  24053404.77404    255084.71204     -2813.17504        25.06004
C37  23016093.79024    -43275.53724       482.27224        26.40924                                                                
C43                                                                  21606626.74404     94830.64804     -1025.90104        26.94804
E02  23522933.11205    184527.97305     -2008.16805        29.74405  23522766.12804    139633.28004     -1499.59504        27.37104
E30  24413936.08405    -63894.47105       694.74905        30.37905                                                                
E34  25444991.29906   -161764.62006      1795.83606        35.59906  25444821.01705   -120839.38805      1340.82305        29.76605
E36  23713060.59005     67615.91205      -770.38605        32.06305  23712883.41214     49948.85814      -575.97614        24.08614
> 2023 07 14 05 58 25.9995382  0 19                      
G05  23700879.42324     71154.67224      -836.07424        24.13224                                                                
G18  21134823.86605    -67994.08105       696.03505        30.87705  21134651.48504    -50810.64604       519.74504        26.31204
G20  24636959.18823    231636.43823     -2647.83123        21.84123                                                                
G26  20265181.40706     33928.62206      -384.78006        40.28006  20265009.92606     26204.53906      -287.14706        38.76206
G29  22112698.89706    344126.29806     -3643.08306        38.76606                                                                
G31  21776997.59806    298750.85806     -3178.60006        39.26906                                                                
R22  20411542.78325    358956.00325     -3819.95325        34.03025
R13  19177493.59723    107900.04023     -1175.14723        22.75723
R23  19462889.12206    -52457.19806       517.93606        38.81906
C11  22393919.81225    265292.59125     -2844.34425        32.01225                                                                
C23  22580801.13706   1614228.49206     -2725.46806        41.41106  22580615.26504    195392.57604     -2053.07904        25.98704
C28  23706295.77324   -162147.59824      1739.95324        26.33924  23706143.17904   -121312.11504      1309.50404        27.58604
C34  24054091.89926    337411.62226     -3733.23926        37.00826  24053913.22223    257898.06923     -2813.64523        23.36523
C37  23015794.29724    -43756.73024       478.75124        27.12324                                                                
C43                                                                  21606679.80723     95855.92523     -1024.94323        22.46123
E30  24413583.82805    -64588.78605       694.49505        33.05305                                                                
E34  25444428.58905   -163560.18405      1795.68105        33.49705  25444269.09904   -122180.18704      1340.21804        29.18204
E36  23712995.23505     68386.56105      -770.76605        30.96705  23712826.45223     50524.04423      -575.64823        22.18823
E02                                                                  23522933.11204    141132.65104     -1499.41004        25.77504
> 2023 07 14 05 58 26.9995376  0 20                      
G05  23700859.63624     71999.34324      -836.52724        25.40324                                                                
G16  21801001.98014   -143697.29314      1632.57514        26.17314                                                                
G18  21134524.07305    -68689.93005       695.58005        31.48305  21134340.00104    -51330.23804       519.05804        26.81304
G20  24637283.86323    234282.35223     -2648.77423        19.20823                                                                
G26  20265072.28206     34313.93406      -386.08306        37.57406  20264903.19906     26492.29806      -288.08006        38.85206
G29  22113216.93806    347769.61406     -3643.51206        37.73006                                                                
G31  21777424.50307    301929.99407     -3179.39307        42.11707                                                                
R22  20412073.41625    362776.35325     -3820.73725        33.79025
R13  19177539.16624    109072.64024     -1176.93324        24.38624
R23  19462609.71606    -52974.54806       516.87706        40.82806
C11  22394286.15805    268137.29105     -2844.47705        30.06405                                                                
C23  22581146.79706   1616954.72706     -2726.70006        40.15006  22580957.02923    197446.73423     -2054.82923        21.48123
C28  23705798.41724   -163885.78124      1737.45424        27.65824  23705628.13504   -122622.17404      1310.05404        26.15004
C34  24054624.33005    341145.43905     -3733.00805        35.43605                                                                
C37  23015517.58924    -44237.51824       479.95424        26.51924                                                                
C43                                                                  21606761.65023     96881.93223     -1024.05423        22.22223
E02  23523311.75004    188543.80504     -2008.29304        26.39504  23523133.67314    142632.08914     -1499.78514        24.07914
E30  24413268.14605    -65282.76205       693.97105        32.82505                                                                
E34  25443912.64605   -165355.37605      1795.08305        32.97605  25443747.16005   -123520.79405      1340.30705        30.24405
E36  23712963.15704     69157.82504      -772.11004        26.60604                                                                
> 2023 07 14 05 58 27.9995370  0 20                      
G05  23700850.34324     72845.21224      -837.01524        26.21024                                                                
G16  21800525.01114   -145331.00314      1632.64914        27.04014                                                                
G18  21134213.48805    -69384.90905       694.65305        31.51205  21134027.61704    -51849.30004       519.31604        27.02004
G20  24637623.52823    236929.57723     -2649.06723        18.34823                                                                
G26  20264964.65706     34699.82506      -385.98006        36.33006  20264796.47306     26780.54906      -288.66806        38.75806
G29  22113729.88306    351413.38906     -3643.76306        37.49706                                                                
G31  21777849.30907    305109.76307     -3179.85507        42.89607                                                                
R22  20412605.54725    366597.42125     -3821.49225        33.46125
R13  19177579.03814    110249.19214     -1178.16414        26.75014
R23  19462336.00506    -53490.96606       516.07206        40.69506
C11  22394651.60524    270982.73224     -2845.71124        27.37824                                                                
C23  22581490.95906   1619681.53706     -2726.76506        40.13606  22581297.29323    199501.72223     -2053.65123        21.21623
C28  23705288.17025   -165623.59225      1737.61025        29.67125  23705113.99104   -123931.69004      1308.62804        25.23104
C34  24055158.56005    344879.20405     -3733.76905        34.58805                                                                
C37  23015242.97924    -44717.61924       479.46624        26.84824                                                                
C43                                                                  21606840.79524     97908.40824     -1026.44524        25.63424
E02  23523513.81004    190552.49004     -2009.19604        25.28604  23523336.93323    144132.31323     -1500.57423        23.20023
E30  24412963.25705    -65976.34005       693.40705        32.15305                                                                
E34  25443390.40705   -167150.17305      1794.62005        33.57505  25443227.02005   -124861.11605      1340.45305        30.43405
E36  23712932.57823     69929.42623      -771.57323        22.43823                                                                
> 2023 07 14 05 58 28.9995363  0 20                      
G05  23700813.16824     73688.71724      -839.27124        26.09924                                                                
G16  21799999.17524   -146962.72124      1631.62624        27.80324                                                                
G18  21133867.52805    -70079.08905       693.31305        30.30405  21133688.25204    -52367.64704       518.00704        27.38004
G20  24637961.39423    239572.81523     -2649.90523        18.05923                                                                
G26  20264823.15506     35086.59506      -387.12506        36.13406  20264660.66706     27069.33906      -289.21706        38.51706
G29  22114211.35006    355057.62306     -3644.56606        37.44406                                                                
G31  21778244.13507    308290.25607     -3180.92007        42.74407                                                                
R22  20413122.38925    370419.19425     -3821.94125        33.27325
R13  19177621.30924    111426.98824     -1180.89424        26.82824
R23  19462028.71806    -54006.45306       515.02206        40.49006
C11  22394991.27024    273828.53424     -2848.24224        25.47424                                                                
C23  22581806.04106   1622409.03806     -2727.64606        40.06306                                                                
C28  23704750.94224   -167360.94224      1736.32324        29.26324  23704571.06704   -125241.04904      1308.93504        25.08804
C34  24055665.80905    348613.33205     -3734.24905        34.61405                                                                
C37  23014938.68924    -45197.13024       480.04824        27.57024                                                                
C43                                                                  21606892.95924     98935.25124     -1027.21024        25.67724
E02  23523695.48404    192561.58304     -2009.84604        24.95304  23523511.71223    145632.58523     -1499.19923        22.69323
E30  24412622.99305    -66669.53805       693.35105        31.93005                                                                
E34  25442838.78905   -168944.55905      1794.15205        33.98105  25442674.80305   -126201.06205      1339.79405        30.35305
E36  23712867.22423     70702.36123      -772.14223        19.42523  23712699.93923     52246.49323      -576.46523        22.74723
> 2023 07 14 05 58 29.9995357  0 19                      
G05  23700790.38424     74527.67224      -841.46624        23.83824                                                                
G16  21799506.61624   -148594.14924      1631.30524        28.12424                                                                
G18  21133547.35005    -70772.89305       693.59405        29.91205  21133376.16804    -52885.68604       518.09604        27.30604
G26  20264726.92106     35473.80006      -387.17006        36.32906  20264554.24106     27358.52206      -289.58406        38.63906
G29  22114722.79606    358702.03506     -3644.37306        37.87206                                                                
G31  21778671.04007    311471.22207     -3181.00807        42.79107                                                                
R22  20413657.81925    374241.52125     -3822.46025        33.07325
R13  19177648.59024    112605.37424     -1180.32924        26.10324
R23  19461750.21106    -54521.22606       514.67306        40.60406
C11  22395353.12024    276674.76324     -2850.85724        24.42924                                                                
C23  22582149.60306   1625137.00106     -2727.92706        39.93806                                                                
C28  23704240.99525   -169098.07025      1736.58025        29.86025  23704056.32304   -126550.21304      1309.20604        25.00504
C34  24056203.93705    352347.68405     -3734.58805        34.78105                                                                
C37  23014661.68124    -45675.92824       481.48624        26.53424                                                                
C43                                                                  21606974.80324     99962.53724     -1026.92424        26.30924
E02  23523896.04604    194571.00104     -2010.02204        25.81004                                                                
E30  24412310.90905    -67362.42405       692.96505        32.18205                                                                
E34  25442317.15005   -170738.75905      1794.38705        33.94405  25442153.16405   -127540.84005      1339.53805        30.29405
E36  23712833.64713     71477.30613      -772.49913        20.60113  23712666.06323     52823.72623      -578.08423        22.52823
> 2023 07 14 05 58 30.9995350  0 20                      
G05  23700740.01923     75371.06723      -842.39623        18.89923                                                                
G16  21798988.27414   -150225.29514      1629.84314        27.47114                                                                
G18  21133202.58805    -71466.13005       693.14305        30.19205  21133033.20604    -53403.31304       517.34504        27.98004
G20  24638625.13522    244874.28022     -2647.80122        16.46122                                                                
G26  20264588.41706     35861.44806      -388.22706        36.48706  20264417.53606     27647.96106      -289.77606        38.46906
G29  22115202.46406    362346.64606     -3644.89506        38.14206                                                                
G31  21779068.56507    314652.64107     -3181.80207        43.26007                                                                
R22  20414171.06325    378064.19625     -3823.23925        33.67425
R13  19177677.97014    113784.47314     -1179.58014        25.02014
R23  19461443.22306    -55035.36106       513.59906        41.27406
C11  22395690.08623    279521.03723     -2851.91223        22.04223                                                                
C23  22582459.58906   1627865.25406     -2728.31106        40.10906                                                                
C28  23703698.07125   -170835.10825      1736.79125        30.66725  23703512.80004   -127859.18804      1308.59404        25.28104
C34  24056710.28605    356081.99605     -3734.56305        35.15305                                                                
C37  23014351.39624    -46155.31624       480.14924        25.79424                                                                
C43                                                                  21607026.66704    100990.01704     -1027.37704        25.85704
E02  23524073.22304    196580.67404     -2011.37304        24.85304                                                                
E30  24411971.54405    -68055.28005       692.64505        31.98405                                                                
E34  25441768.83005   -172532.73505      1793.72105        34.32205  25441602.14505   -128880.60305      1339.80005        30.11305
E36  23712770.39123     72254.70823      -772.76223        19.77623  23712600.70823     53401.08623      -577.33323        22.65323
> 2023 07 14 05 58 31.9995344  0 19                      
G05  23700727.72823     76216.80623      -841.07523        20.52223                                                                
G16  21798498.41424   -151851.20724      1631.02024        27.07624                                                                
G18  21132891.40405    -72158.70505       692.00205        29.92605  21132722.02104    -53920.61104       517.09804        26.96504
G26  20264486.78806     36249.53506      -388.92106        36.59106  20264312.00906     27937.76106      -289.97106        38.42606
G29  22115720.20506    365991.46206     -3645.20806        37.91806                                                                
G31  21779490.37307    317834.53807     -3182.26107        43.60607                                                                
R22  20414712.78825    381887.32225     -3823.36225        33.59925
R13  19177706.15014    114964.35414     -1177.13314        26.78714
R23  19461168.31407    -55548.84307       512.90707        41.77307
C11  22396059.43123    282368.38723     -2851.23323        21.96723                                                                
C23  22582806.44806   1630593.95906     -2728.96306        39.88906                                                                
C28  23703188.72425   -172571.92725      1736.38325        31.28025  23702999.55524   -129168.04824      1308.52124        23.83424
C34  24057245.41605    359816.48105     -3734.73405        34.85405                                                                
C37  23014087.57924    -46637.96824       475.65324        25.20024                                                                
C43                                                                  21607109.11004    102017.79904     -1028.18704        25.29204
E02  23524265.99004    198590.53904     -2009.42504        24.67904  23524087.01324    150134.68724     -1500.53324        23.81024
E30  24411658.26105    -68747.93205       692.19305        31.71205                                                                
E34  25441247.79105   -174326.61205      1793.66905        34.49205  25441081.10605   -130220.11705      1339.39905        30.70405
E36  23712738.01323     73034.18523      -774.35323        20.41223  23712568.93023     53979.00523      -577.97623        22.88323
> 2023 07 14 05 58 32.9995338  0 19                      
G05  23700719.03423     77060.56923      -842.75323        22.82923                                                                
G16  21798014.54924   -153479.70624      1632.51924        27.77324                                                                
G18  21132580.21905    -72850.87505       692.20805        30.78505  21132410.23704    -54437.47404       517.14304        27.67204
G26  20264378.56306     36638.20406      -389.06306        36.76706  20264205.58206     28228.01606      -290.62406        38.76806
G29  22116236.14806    369636.53306     -3645.45006        37.74706                                                                
G31  21779919.07607    321016.97407     -3182.95407        43.85607                                                                
R22  20415249.71725    385711.06225     -3824.04525        33.83725
R13  19177749.32014    116145.12114     -1183.68914        26.46514
R23  19460893.10406    -56061.53406       512.31006        41.30206
C11  22396422.77923    285218.61123     -2851.26523        21.61123                                                                
C23  22583146.11306   1633323.13406     -2729.41206        39.51506  22582962.34023    209769.11623     -2055.87723        21.76123
C28  23702675.77905   -174307.92105      1735.98105        31.22905  23702486.91004   -130476.72204      1308.44604        24.53804
C34  24057781.74405    363551.28605     -3735.16305        34.53805                                                                
C37  23013809.37124    -47115.79924       475.98424        25.58024                                                                
C43                                                                  21607189.75404    103045.97104     -1028.47204        25.64704
E02  23524459.65504    200600.76504     -2010.09204        25.87404                                                                
E30  24411347.67605    -69440.33405       691.99905        30.72505                                                                
E34  25440725.85205   -176120.20405      1793.36805        34.14805  25440560.06705   -131559.50105      1339.43005        30.71205
E36  23712701.73823     73816.14323      -774.86923        20.71423                                                                
> 2023 07 14 05 58 33.9995331  0 19                      
G05  23700669.56823     77897.31023      -843.41223        22.27123                                                                
G16  21797491.11124   -155111.16624      1627.36724        28.33324                                                                
G18  21132240.85405    -73542.33605       691.28005        31.60605  21132067.87404    -54953.79604       516.37304        27.05304
G26  20264242.45706     37027.39306      -389.58606        36.29506  20264070.07606     28518.61906      -291.00606        39.28106
G29  22116720.91306    373281.86706     -3645.54006        38.23706                                                                
G31  21780314.20207    324199.92007     -3183.31307        43.52807                                                                
R22  20415756.96625    389535.26725     -3824.43625        34.37925
R13  19177750.81924    117331.79924     -1184.34224        25.71824
R23  19460594.21106    -56573.46906       511.53606        41.04506
C11  22396757.04823    288072.89423     -2849.73423        23.27723                                                                
C23  22583459.99606   1636052.74906     -2729.90806        38.97506                                                                
C28  23702132.55505   -176044.17905      1736.09905        30.56705  23701942.18704   -131785.18604      1308.46404        25.18204
C34  24058291.99105    367286.12705     -3734.94705        35.43905                                                                
C37  23013506.88124    -47593.19824       484.12724        24.74424                                                                
C43  21607424.19124    137733.18024     -1364.87824        27.50424  21607242.21704    104074.46504     -1028.87804        25.04504
E02  23524628.43904    202611.46704     -2011.18504        26.08004  23524460.55523    153137.12623     -1500.57323        22.95323
E30  24411003.51405    -70132.45405       691.56605        30.11905                                                                
E34  25440172.43505   -177913.50705      1792.88105        33.97005  25440007.84905   -132898.62205      1338.82205        29.91805
E36  23712639.98123     74600.69123      -774.92623        18.55923                                                                
> 2023 07 14 05 58 34.9995325  0 19                      
G05  23700648.58223     78734.51323      -843.30123        19.62323                                                                
G16  21797003.04924   -156741.18824      1629.21424        28.40624                                                                
G18  21131931.46805    -74233.21305       689.93105        31.81005  21131756.98904    -55469.70304       515.17704        27.77504
G26  20264134.83106     37416.92506      -389.63806        36.68006  20263963.95006     28809.56206      -291.47106        39.38206
G29  22117237.15506    376927.32306     -3645.62506        38.42506                                                                
G31  21780742.30607    327383.29707     -3183.80607        43.83507                                                                
R22  20416302.28825    393359.79325     -3824.66725        34.62425
R13  19177773.00424    118517.42824     -1177.45424        23.60124
R23  19460315.70406    -57084.79206       510.94706        40.81706
C11  22397119.49723    290926.88923     -2849.23723        22.57323                                                                
C23  22583804.15806   1638782.72306     -2730.25006        38.60706                                                                
C28  23701618.41105   -177780.29105      1735.49705        30.97505  23701429.84204   -133093.42604      1307.58104        24.44004
C34  24058830.41806    371021.06206     -3735.10506        35.69506                                                                
C37  23013241.86424    -48070.14724       478.34824        25.92824                                                                
C43  21607507.53424    139098.22724     -1365.11824        28.81024  21607325.26024    105103.06924     -1027.15324        24.00024
E02  23524826.90104    204622.28404     -2011.34804        26.46304  23524662.31523    154638.73823     -1501.44223        23.19423
E30  24410692.32905    -70824.53505       691.59605        30.53105                                                                
E34  25439652.89505   -179706.66105      1792.61005        33.48405  25439487.11005   -134237.68105      1338.40105        29.87005
E36  23712603.70623     75387.87523      -775.02123        18.02523                                                                
> 2023 07 14 05 58 35.9995318  0 19                      
G05  23700596.71823     79573.32823      -842.45823        18.86423                                                                
G16  21796486.20714   -158370.62214      1629.44314        27.75814                                                                
G18  21131587.90605    -74923.41205       689.73405        31.49405  21131415.22604    -55985.02104       514.33604        28.88504
G26  20263996.62706     37807.31706      -390.50306        36.90906  20263829.04306     29101.06406      -291.54806        38.84206
G29  22117721.02006    380573.32206     -3645.95806        37.91506                                                                
G31  21781138.03207    330567.44507     -3184.28807        43.96707                                                                
R22  20416817.93125    397185.21225     -3825.67825        34.18525
R13  19177779.00024    119690.91224     -1179.35124        25.20624
R23  19460015.61207    -57595.08707       510.10007        41.64607
C11  22397454.36523    293770.29323     -2848.26823        19.20523                                                                
C23  22584116.54106   1641513.40206     -2730.65306        38.82706                                                                
C28  23701073.38805   -179515.88905      1735.51305        30.84205  23700884.81904   -134401.37504      1307.65904        24.96204
C34  24059335.86805    374756.45705     -3735.45105        34.48905                                                                
C37  23012945.07024    -48546.38524       472.55624        26.07924                                                                
C43  21607561.79624    140463.92924     -1365.44224        29.24724  21607376.82404    106132.33804     -1029.01504        24.77304
E02  23525006.77704    206633.59504     -2011.85404        26.10704  23524834.99623    156140.77723     -1499.83023        23.35023
E30  24410351.46505    -71516.11405       691.43705        30.60305                                                                
E34  25439100.67705   -181499.30005      1792.31805        33.74805  25438935.49105   -135576.33105      1338.00505        29.96605
E36  23712530.25723     76175.36023      -773.66023        18.23323                                                                
> 2023 07 14 05 58 36.9995312  0 19                      
G05  23700567.63823     80410.54523      -843.06623        19.80823                                                                
G16  21795994.84714   -159999.83914      1628.91214        27.37114                                                                
G18  21131279.71905    -75613.04405       689.21605        31.39805  21131103.74104    -56500.07004       514.59304        28.33504
G26  20263896.19706     38198.16806      -390.73006        36.75106  20263723.51606     29392.90806      -291.82206        39.35106
G29  22118234.26506    384219.52506     -3646.11206        38.37006                                                                
G31  21781562.83807    333752.05307     -3184.69707        43.40007                                                                
R22  20417355.75925    401011.06825     -3826.21825        34.64225
R13  19177821.27123    120868.93623     -1181.86823        22.63223
R23  19459737.40406    -58104.67706       509.28806        41.15306
C11  22397819.81223    296617.45623     -2848.74423        20.32923                                                                
C23  22584464.30106   1644244.49206     -2731.09606        38.38306                                                                
C28  23700563.44105   -181251.26905      1735.32905        30.91805  23700372.17404   -135709.20504      1307.66604        24.92604
C34  24059873.69605    378492.02305     -3735.76005        35.08805                                                                
C37  23012668.66124    -49022.37724       480.31924        24.90524                                                                
C43  21607645.13925    141830.10225     -1366.40825        29.70225  21607459.26724    107161.84624     -1028.70424        23.57424
E02  23525212.73404    208645.15604     -2011.52004        25.88004  23525037.05623    157642.85423     -1500.93823        23.13623
E30  24410041.48005    -72207.53505       691.52605        30.53005                                                                
E34  25438580.53705   -183291.83505      1792.34405        33.62005  25438414.75205   -136914.92905      1338.25605        30.30505
E36                                                                  23712346.48424     56872.44324      -579.26324        23.89824
> 2023 07 14 05 58 37.9995306  0 19                      
G05  23700540.65723     81255.96223      -843.55023        22.87723                                                                
G16  21795501.08924   -161628.58524      1629.37024        27.87924                                                                
G18  21130965.23705    -76301.84905       688.41005        31.41105  21130792.55704    -57014.44504       514.29804        28.65404
G26  20263790.67006     38589.68806      -391.18106        37.64406  20263618.28906     29685.32506      -292.53506        40.08906
G29  22118744.81206    387866.13306     -3646.44906        38.73306                                                                
G31  21781992.74007    336937.44507     -3185.65907        43.29307                                                                
R22  20417886.69125    404837.55525     -3826.97925        33.85925
R13  19177861.44323    122044.38523     -1183.48523        20.27423
R23  19459456.49906    -58613.35806       508.37906        40.17006
C11  22398182.26123    299462.32623     -2849.47023        23.49123                                                                
C23  22584806.96306   1646976.28106     -2732.07306        37.69606                                                                
C28  23700050.49605   -182986.19805      1734.86305        30.83005  23699860.42804   -137016.74804      1307.88404        25.21804
C34  24060413.32205    382227.82005     -3736.07905        35.25305                                                                
C37  23012399.14824    -49497.63624       477.50324        25.37824                                                                
C43  21607724.58425    143196.87925     -1366.62525        30.27225  21607539.01223    108192.13323     -1031.30723        22.50623
E02  23525415.69404    210657.33604     -2012.55004        26.49804  23525239.71523    159145.50623     -1502.34023        22.53923
E30  24409731.19505    -72898.52005       691.08505        30.93105                                                                
E34  25438060.69705   -185083.91905      1792.54805        33.34305  25437894.01205   -138253.10905      1337.91705        29.84705
E36                                                                  23712315.60524     57452.53724      -579.15024        23.88024
> 2023 07 14 05 58 38.9995299  0 18                      
G05  23700484.59623     82101.22423      -844.45523        19.76223                                                                
G16  21794989.94214   -163256.63414      1626.96414        26.15514                                                                
G18  21130619.57605    -76989.98005       687.95705        29.98405  21130454.09105    -57528.40205       514.15005        29.62705
G26  20263653.36506     38982.05906      -392.45606        36.80606  20263483.08306     29978.21906      -293.10906        39.77706
G29  22119225.67906    391513.20206     -3647.17606        38.73906                                                                
G31  21782385.76806    340123.32006     -3185.20806        41.22206                                                                
R22  20418392.14125    408664.83225     -3827.94525        30.55625
R13  19177859.94423    123224.76023     -1184.36423        19.44123
R23  19459151.31006    -59121.00106       506.74706        39.06506
C11  22398518.02924    302309.35624     -2847.73624        24.00924                                                                
C23  22585119.64706   1649708.72906     -2732.86606        38.43806                                                                
C28  23699506.07305   -184720.74205      1734.36205        31.47805  23699317.50404   -138323.72504      1306.91504        25.87804
C34  24060914.57505    385963.89105     -3736.11705        34.65105                                                                
C37  23012102.05324    -49972.37324       478.18224        25.56524                                                                
C43  21607783.64305    144564.17005     -1367.21305        31.38805                                                                
E02  23525586.87504    212669.68204     -2012.17504        27.67704  23525412.39624    160648.22824     -1502.84124        23.81224
E30  24409390.03105    -73588.99005       689.82705        30.28505                                                                
E34  25437519.57205   -186875.41405      1791.36705        33.03505  25437343.29405   -139591.05005      1338.08805        29.80905
> 2023 07 14 05 58 39.9995293  0 18                      
G05  23700468.10723     82947.72623      -843.97923        17.80523                                                                
G16  21794495.58524   -164879.59824      1628.06324        23.99124                                                                
G18  21130306.89314    -77677.68214       688.56514        27.40014  21130142.30704    -58041.97404       513.96604        28.03604
G26  20263554.73306     39374.53206      -392.56206        40.38706  20263377.85506     30271.29006      -293.15006        39.77606
G29  22119739.22306    395160.15606     -3646.79906        39.16306                                                                
G31  21782819.56806    343309.70806     -3187.20106        41.36306                                                                
R22  20418933.26725    412492.06825     -3827.45325        33.87225
R13  19177930.39524    124412.11524     -1186.27724        24.50924
R23  19458884.79406    -59628.28706       506.52706        38.98306
C11  22398886.17424    305159.03424     -2849.44324        27.02524                                                                
C23  22585460.21106   1652440.97006     -2731.43806        38.68306                                                                
C28  23699002.12224   -186455.64824      1733.82324        28.27224  23698806.95704   -139630.73704      1305.79504        27.83104
C34  24061469.49105    389700.02105     -3736.06605        34.61205                                                                
C37  23011825.04524    -50446.94124       475.63424        25.67724                                                                
C43  21607868.18425    145931.98825     -1368.30225        29.88825                                                                
E02  23525792.23304    214682.13104     -2012.34804        28.61004  23525614.75624    162151.08424     -1502.89824        25.42124
E30  24409075.84805    -74279.70105       690.68605        31.46605                                                                
E34  25436993.43605   -188667.02105      1790.96005        33.98305  25436822.85404   -140928.80204      1337.20704        28.21004
> 2023 07 14 05 58 40.9995287  0 18                      
G05  23700451.61923     83798.00323      -848.86123        17.81523                                                                
G16  21794005.42414   -166507.28314      1627.21114        27.18814                                                                
G18  21130012.79714    -78364.19214       687.39114        27.65414  21129839.51605    -58555.00505       513.22505        30.66405
G26  20263445.60907     39767.77307      -393.03107        42.19107  20263272.92806     30564.95906      -293.23106        40.10006
G29  22120252.46815    398807.34515     -3647.28415        35.24115                                                                
G31  21783235.98007    346497.09007     -3186.59207        44.66907                                                                
R22  20419463.30024    416316.19324     -3826.93124        29.20524
R13  19177972.96624    125605.13824     -1188.99124        25.98324
R23  19458602.98907    -60134.48207       506.33407        41.78507
C11  22399262.11424    308006.50724     -2849.18724        28.61324                                                                
C23  22585810.96825   1655174.57025     -2738.62825        34.65525  22585627.49504    226225.70604     -2057.90604        27.06804
C28  23698486.47924   -188189.03624      1733.42024        28.97024  23698298.21023   -140936.64323      1309.02923        22.63423
C34  24061997.12626    393435.41726     -3734.63726        37.39626                                                                
C37  23011569.62224    -50921.21624       470.15624        26.86724                                                                
C43  21607953.32525    147300.03325     -1367.33625        31.15625  21607764.15605    111270.16305     -1030.53705        29.73705
E02  23525987.69805    216695.19105     -2012.38305        33.23005  23525817.71524    163654.24724     -1503.20624        25.71024
E30  24408745.77704    -74970.21804       690.75004        28.80604  24408581.79023    -55625.88323       516.76723        23.19523
E34  25436470.29805   -190457.52305      1791.16105        33.92505  25436301.21505   -142265.95105      1337.69405        29.88305
> 2023 07 14 05 58 41.9995280  0 18                      
G16  21793480.18824   -168133.62024      1626.97524        23.98324                                                                
G18  21129668.03524    -79044.85124       686.18024        27.08324  21129497.75305    -59067.71505       512.55605        33.92905
G26  20263314.29907     40161.47907      -393.71907        42.96707  20263137.12206     30858.95206      -293.53306        38.36506
G29  22120727.93905    402455.01805     -3646.77405        34.34505                                                                
G31  21783632.60507    349684.58007     -3187.91007        44.14907                                                                
R22  20419932.77524    420142.20624     -3833.43324        27.88824
R13  19177954.07923    126793.08223     -1192.51423        22.47823
R23  19458288.80706    -60640.08406       504.31706        39.42206
C11  22399602.37825    310856.82725     -2849.60525        29.52525                                                                
C23  22586126.95026   1657908.14026     -2733.98826        40.22126  22585943.77604    228285.92704     -2060.01104        29.16104
C28  23697937.85925   -189922.79225      1733.36225        31.27525  23697764.27924   -142243.42924      1306.78624        23.65924
C34  24062503.17626    397171.99626     -3734.22226        37.51326                                                                
C37  23011262.63424    -51394.83424       472.28924        25.50024                                                                
C43  21608009.08724    148667.61024     -1369.26224        28.58624  21607817.51904    112301.63504     -1030.94404        28.40504
E02  23526176.26705    218708.44305     -2013.43405        34.30005                                                                
E30  24408411.20905    -75660.18005       690.69105        29.53605                                                                
E34  25435924.37605   -192248.50105      1790.60905        34.20105  25435752.89505   -143603.30905      1336.50505        30.71605
E36  23712308.11104     80882.23104      -778.51404        27.31404                                                                
> 2023 07 14 05 58 42.9995274  0 19                      
G05  23700420.74022     85456.66122      -843.90122        16.93422                                                                
G16  21792990.62724   -169759.96024      1626.32824        23.72724                                                                
G18  21129361.94724    -79731.37024       686.34624        25.55224  21129184.47005    -59579.61905       511.61505        34.22605
G26  20263206.07407     40555.84507      -394.69507        41.84407  20263032.19506     31153.49706      -294.59006        37.79706
G29  22121245.08105    406103.21105     -3647.70305        32.82205                                                                
G31  21784058.01006    352873.07206     -3188.77806        39.09206                                                                
R22  20420492.48725    423971.09025     -3829.39325        32.38425
R13  19177996.34923    127983.22023     -1193.10823        19.80823
R23  19458035.18306    -61144.75006       504.29506        39.35506
C11  22399979.51725    313707.58125     -2851.26625        34.25325                                                                
C23  22586476.20826   1660642.50326     -2734.53326        41.27826  22586289.73704    230346.53704     -2061.13104        28.66404
C28  23697431.80924   -191656.27624      1731.83224        27.30124  23697246.83704   -143549.71904      1305.84304        28.61604
C34  24063046.69926    400908.84526     -3736.89926        38.22226                                                                
C37  23010984.72725    -51871.59025       473.34725        31.32825                                                                
C43  21608087.03324    150036.71224     -1369.06324        29.46724  21607900.86224    113333.38924     -1032.28924        26.55324
E02  23526378.02705    220722.42205     -2014.10705        32.13405                                                                
E30  24408105.42004    -76349.55304       688.79804        26.22304                                                                
E34  25435411.43105   -194038.78305      1790.34905        35.40005  25435230.65605   -144940.16905      1336.55305        29.67005
E36  23712278.73124     81658.61224      -778.72524        27.46624                                                                
> 2023 07 14 05 58 43.9995267  0 18                      
G16  21792469.28724   -171386.79424      1625.57624        23.71924                                                                
G18  21129016.58614    -80416.41814       684.53214        25.19514  21128843.90605    -60091.40405       511.61005        34.39705
G26  20263068.47006     40950.49606      -394.92206        41.31606  20262897.88806     31448.22806      -295.12406        38.49706
G29  22121734.94205    409751.40905     -3648.81405        30.86605                                                                
G31  21784453.43706    356061.63106     -3188.77806        37.21206                                                                
R22  20420992.24125    427800.70425     -3830.06925        31.73125
R13  19178022.73123    129180.44023     -1194.35623        20.40423
R23  19457723.09906    -61649.07006       503.73106        39.77106
C11  22400314.08525    316558.43325     -2851.28425        35.17425                                                                
C23  22586789.79127   1663376.88027     -2734.65527        41.63427  22586605.41804    232407.17504     -2061.25004        28.58904
C28  23696885.88724   -193389.66624      1732.76824        28.94324  23696705.41204   -144856.10404      1305.76304        27.97504
C34  24063559.04526    404645.79326     -3737.15126        37.32126                                                                
C37  23010684.03525    -52344.19025       472.38325        33.94325  23010506.25823    -45745.88323       356.01623        21.59523
C43  21608130.80224    151405.81024     -1369.90624        25.75724  21607955.12404    114365.27304     -1031.91204        25.58604
E02  23526557.30304    222736.59404     -2014.66804        28.49304  23526374.13024    168150.65624     -1504.29124        27.49724
E30  24407771.15204    -77039.18204       689.39604        25.82004  24407582.58223    -57172.99123       514.87523        23.10323
E34  25434854.41705   -195829.41705      1790.68505        35.30705  25434678.13904   -146277.36304      1336.87204        29.00404
E36  23712218.77304     82438.50604      -779.82904        26.35904                                                                
> 2023 07 14 05 58 44.9995261  0 19                      
G05  23700283.73523     87151.19823      -846.82823        18.36323                                                                
G16  21791983.92314   -173013.17814      1627.80614        25.55114                                                                
G18  21128703.30324    -81101.43424       683.88724        24.37724  21128534.22005    -60602.76305       511.31805        34.44605
G26  20262966.84007     41345.58707      -394.90007        41.77807  20262793.56006     31743.26506      -295.08306        40.24306
G29  22122245.18805    413399.73805     -3648.14405        32.36905                                                                
G31  21784886.33706    359250.54906     -3188.85106        40.10206                                                                
R22  20421532.16725    431630.67225     -3830.46925        31.11625
R13  19178078.19323    130378.64323     -1193.42823        21.06523
R23  19457451.18707    -62152.70407       503.42007        41.83907
C11  22400679.83205    319410.05205     -2850.85905        34.26805                                                                
C23  22587132.45406   1666112.18806     -2734.56406        39.08406  22586950.77904    234468.05304     -2061.31004        27.84104
C28  23696372.04324   -195122.92224      1733.22424        28.16524  23696193.06704   -146162.19504      1305.94004        27.13304
C34  24064090.87706    408382.75606     -3736.49106        38.03506                                                                
C37  23010416.62005    -52815.89605       472.42705        35.08405  23010235.84523    -46101.73123       356.13723        23.00723
C43  21608237.22925    152775.68125     -1369.96625        30.13925  21608040.56504    115397.46804     -1032.12004        26.82004
E02  23526755.16604    224750.79704     -2013.90204        27.36004  23526572.89204    169654.71304     -1503.63704        28.91004
E30  24407456.66904    -77728.69004       690.48304        28.69204  24407270.49823    -57687.85923       515.30623        23.48523
E34  25434331.87806   -197619.73806      1790.39506        36.03006  25434158.59804   -147614.26504      1336.61204        28.99404
E36  23712190.29204     83218.66404      -780.65404        27.63604                                                                
> 2023 07 14 05 58 45.9995255  0 20                      
G05  23700241.76414     87996.63814      -845.13714        25.15614                                                                
G16  21791498.26025   -174639.04625      1625.00525        30.78925                                                                
G18  21128387.02224    -81785.46824       683.29124        29.00524  21128224.53505    -61113.63705       510.44105        35.10605
G20  24643283.61023    284647.08423     -2661.88323        20.53723                                                                
G26  20262858.31507     41741.33807      -396.25207        42.85507  20262688.93206     32038.81506      -296.10906        40.16406
G29  22122753.93605    417048.31205     -3648.82305        33.77005                                                                
G31  21785308.74507    362440.23807     -3190.01707        41.60207                                                                
R22  20422104.77125    435461.20025     -3831.04025        35.38925
R13  19178122.26223    131573.39323     -1193.68723        18.59323
R23  19457175.07807    -62655.42007       502.23907        42.38707
C11  22401043.18105    322261.62205     -2852.28105        32.76405                                                                
C23  22587480.51306   1668847.81006     -2735.88406        37.75706  22587298.83804    236529.59504     -2061.95004        28.54004
C28  23695846.50724   -196855.68324      1737.24824        26.69624  23695678.62304   -147468.05404      1305.33404        26.62904
C34  24064626.00606    412119.83006     -3737.56906        37.27606                                                                
C37  23010145.90706    -53287.63706       471.34606        35.79506  23009962.43424    -46457.15224       354.94524        24.57424
C43  21608319.07225    154145.65725     -1370.47825        30.48725  21608122.70804    116430.12604     -1033.19804        26.66104
E02  23526955.72704    226765.59104     -2015.95204        29.21704  23526774.95305    171159.18705     -1505.04205        29.58405
E30  24407145.48504    -78417.72904       689.36004        27.07504  24406958.41423    -58202.47823       514.62323        23.02023
E34  25433810.24005   -199409.59705      1789.59105        35.42305  25433639.05805   -148950.89905      1336.29405        30.38105
E36  23712155.81604     83999.32404      -781.48804        26.99004                                                                
> 2023 07 14 05 58 46.9995248  0 19                      
G05  23700210.88524     88844.90024      -850.25524        27.77324                                                                
G16  21790984.41525   -176264.55325      1625.20525        30.50725                                                                
G18  21128058.15025    -82468.83625       683.15525        30.32825  21127884.27005    -61623.96905       510.06905        34.73405
G26  20262724.00807     42137.79807      -396.70707        43.04307  20262554.02606     32334.80906      -296.02906        39.59006
G29  22123236.90205    420697.56705     -3649.31605        33.42405                                                                
G31  21785706.56907    365630.46907     -3190.70807        41.60907                                                                
R22  20422600.32826    439292.48526     -3831.63526        37.85326
R13  19178137.85123    132762.92723     -1195.10823        18.01723
R23  19456870.48907    -63157.30007       501.28807        41.88607
C11  22401381.64605    325113.79305     -2852.22205        32.05005                                                                
C23  22587797.99306   1671583.69506     -2736.39906        38.18906  22587612.72104    238591.30704     -2061.74104        27.62804
C28  23695294.88924   -198588.16024      1733.78424        23.88024  23695133.90004   -148773.70104      1305.49004        26.78604
C34  24065128.75806    415857.77806     -3737.89106        36.64406  24064958.77623    316999.18823     -2815.90923        22.38723
C37  23009847.31405    -53758.58205       470.61605        34.81705  23009662.64224    -46812.13924       354.47324        26.24824
C43  21608368.23825    155516.70325     -1371.52825        29.67825  21608178.17004    117463.17204     -1033.38404        26.56604
E02  23527133.20505    228780.66805     -2015.65405        30.61605  23526947.63305    172664.04605     -1505.15505        29.81305
E30  24406812.71523    -79106.54623       689.16923        22.61823  24406618.74923    -58716.75723       514.27823        23.21923
E34  25433258.92105   -201199.41305      1789.57705        35.00005  25433088.33905   -150287.40605      1336.11005        30.52005
E36  23712093.15904     84780.53904      -781.84404        27.29304  23711903.09123     62683.48823      -584.02023        22.48323
> 2023 07 14 05 58 47.9995242  0 19                      
G05  23700202.49124     89694.67624      -849.96124        29.28424                                                                
G16  21790495.75424   -177889.92824      1625.40024        29.16524                                                                
G18  21127750.86225    -83151.83625       683.05725        31.60525  21127574.58405    -62133.94305       509.99505        34.86805
G26  20262619.08107     42534.53707      -396.58907        43.22007  20262450.29806     32631.10906      -296.38006        39.74306
G29  22123756.74205    424346.72405     -3648.97605        33.91105                                                                
G31  21786134.97307    368821.01107     -3190.58307        41.76707                                                                
R22  20423153.74526    443124.01426     -3831.35026        38.41826
R13  19178211.30122    133957.86722     -1194.71422        17.21622
R23  19456597.07807    -63658.62307       501.22307        41.96507
C11  22401754.58805    327966.03805     -2852.51205        32.80405                                                                
C23  22588141.85506   1674319.91806     -2736.01806        39.55006  22587957.78204    240653.41104     -2062.39504        26.39204
C28  23694781.34424   -200320.68424      1733.51824        24.69324  23694624.55304   -150079.33004      1306.44004        25.97904
C34  24065675.57906    419595.43306     -3737.74406        38.56706                                                                
C37  23009576.60205    -54229.40105       471.02305        34.56505  23009392.22924    -47166.95624       354.25124        26.08124
C43  21608462.37324    156887.89624     -1369.76224        27.94224  21608260.61204    118496.56404     -1033.91204        26.15004
E02  23527338.86205    230795.90205     -2014.91205        30.95505  23527151.79204    174168.92304     -1505.02604        29.39204
E30  24406516.52004    -79795.34804       690.07104        24.50204  24406307.26524    -59231.03924       513.56524        24.95824
E34  25432738.48205   -202988.97405      1789.59105        34.93105  25432568.49905   -151623.82405      1336.81105        29.69905
E36  23712065.87804     85562.01904      -780.01904        27.08504  23711872.81223     63267.10623      -583.97423        23.04323
> 2023 07 14 05 58 48.9995235  0 19                      
G05  23700159.62124     90546.26724      -850.95524        27.26224                                                                
G16  21789982.80924   -179514.54624      1622.26224        25.96924                                                                
G18  21127410.59825    -83833.85525       683.02525        29.58025  21127234.32005    -62643.49905       509.48505        35.37405
G26  20262490.47007     42931.84507      -397.56407        42.55507  20262315.39106     32927.71206      -296.62606        40.55606
G29  22124239.40805    427996.32105     -3647.68205        32.60105                                                                
G31  21786533.09707    372011.47107     -3190.59107        43.46407                                                                
R22  20423634.31226    446956.72026     -3832.58026        35.60126
R13  19178182.22123    135149.37323     -1192.97823        18.77123
R23  19456289.49107    -64159.51207       500.51407        41.54207
C11  22402090.35625    330818.43325     -2854.01225        32.35525                                                                
C23  22588456.93706   1677056.02406     -2736.78306        38.89206  22588273.76304    242715.70004     -2063.02404        28.21704
C28  23694244.11624   -202053.55724      1732.96624        26.13424  23694083.42704   -151384.19004      1303.50404        26.68204
C34  24066179.83006    423334.24206     -3737.74106        39.82606                                                                
C37  23009277.10925    -54699.57325       471.12325        32.36125  23009092.13723    -47521.05723       354.95723        22.86523
C43  21608486.05624    158259.22224     -1371.09824        28.08224  21608313.07604    119530.11404     -1033.56604        28.73804
E02  23527501.05005    232811.76205     -2015.65005        33.13005  23527327.17004    175674.50604     -1505.35904        27.97104
E30  24406141.18004    -80483.48804       686.25204        25.02004  24405967.30023    -59745.14623       514.44923        21.26523
E34  25432188.36205   -204779.38305      1790.63505        35.33205  25432018.68004   -152960.80504      1336.69304        29.28504
E36  23712005.62004     86344.46504      -781.82304        28.06304  23711811.65423     63850.71023      -583.97223        21.90323
> 2023 07 14 05 58 49.9995229  0 18                      
G05  23700145.83024     91397.15724      -847.91024        24.20624                                                                
G16  21789487.25215   -181138.55315      1624.81015        29.95515                                                                
G18  21127099.41324    -84516.25724       688.66824        25.74724  21126924.33505    -63152.80405       508.78805        33.30805
G26  20262389.44007     43329.43907      -397.66207        42.19307  20262211.66306     33224.66906      -296.95806        40.08306
G29  22124760.14706    431645.80406     -3648.76406        38.24606                                                                
G31  21786960.30107    375202.77407     -3191.95607        44.11407                                                                
R22  20424185.63125    450789.00225     -3832.77725        33.65625
R13  19178266.76223    136340.27323     -1192.00423        19.29023
R23  19456017.57907    -64659.55707       499.46607        42.13207
C11  22402460.29925    333671.05825     -2852.20825        30.25625                                                                
C23  22588798.70006   1679792.82706     -2737.11406        37.42906  22588620.32405    244778.10705     -2062.67405        30.26505
C28  23693740.46523   -203784.86223      1730.81723        22.93923  23693562.08824   -152689.70124      1304.50724        26.72124
C34  24066721.55526    427072.61426     -3738.00626        36.60726  24066548.57524    325444.22524     -2817.19724        24.32924
C43  21608564.00225    159631.24625     -1371.21225        30.23825  21608393.72004    120564.01504     -1034.05904        28.15704
E02  23527698.91305    234827.44405     -2015.08605        31.71505  23527528.33104    177179.72904     -1505.78704        26.66704
E30  24405835.39204    -81171.53304       688.72104        27.71304                                                                
E34  25431668.82206   -206568.79106      1788.61606        36.02106  25431495.54204   -154297.01204      1335.55804        28.92104
E36  23711960.35105     87126.71305      -781.96505        32.53405  23711781.37524     64434.96124      -584.54024        25.59324
> 2023 07 14 05 58 50.9995223  0 19                      
G05  23700131.74023     92248.22123      -847.80523        21.75723                                                                
G16  21788998.59024   -182763.82324      1633.34124        26.82824                                                                
G18  21126788.52924    -85207.05424       682.62624        27.61524  21126614.04905    -63661.52105       508.62605        33.88405
G26  20262287.81006     43727.61906      -398.29006        40.65306  20262106.13606     33522.09806      -298.25206        37.35406
G29  22125273.09206    435295.50706     -3649.80706        38.36106                                                                
G31  21787392.30207    378394.93507     -3191.83207        44.18107                                                                
R22  20424712.06625    454621.78725     -3833.88125        35.06625
R13  19178137.55223    137535.94223     -1192.97823        22.15923
R23  19455756.16006    -65158.68906       499.08706        40.88206
C11  22402828.44505    336523.95705     -2853.48005        34.83805                                                                
C23  22589155.75306   1682530.58406     -2736.99006        39.66406  22588965.98405    246841.29605     -2062.51005        31.37105
C28  23693230.81823   -205512.73923      1732.24323        22.61323  23693052.14104   -153994.25304      1305.00004        25.86004
C34  24067254.28725    430810.13925     -3738.28525        34.23125  24067086.10324    328261.24124     -2816.87024        24.10524
C37  23008733.28524    -55646.03624       473.24824        29.13724                                                                
C43  21608650.04305    161003.90905     -1371.95305        29.91405  21608477.96205    121598.28705     -1034.39305        29.50905
E02  23527922.55805    236843.36205     -2016.02605        33.26005  23527732.19023    178685.09323     -1502.76623        23.46123
E30  24405525.10724    -81861.90524       695.45724        26.17224                                                                
E34  25431147.48306   -208357.34206      1789.65506        36.93606  25430979.00005   -155632.59505      1335.67305        31.28005
E36  23711936.06805     87909.38905      -783.06005        32.28305  23711750.49723     65019.65223      -584.17123        22.93623
> 2023 07 14 05 58 51.9995216  0 19                      
G05  23700081.37523     93100.79223      -850.31723        22.88523                                                                
G16  21788475.45223   -184389.74523      1634.48823        22.89423                                                                
G18  21126449.76325    -85887.86525       680.22325        31.87225  21126273.48505    -64169.74805       508.24505        32.40905
G26  20262150.20506     44126.41306      -399.22906        39.65306  20261971.22906     33819.86306      -298.05706        35.86906
G29  22125753.95906    438945.79406     -3649.86906        36.87706                                                                
G31  21787790.42707    381587.65407     -3192.71207        41.84107                                                                
R22  20425209.12225    458455.31725     -3833.76725        34.76925
R13  19178206.50423    138729.97723     -1195.86123        23.09523
R23  19455444.67606    -65657.09106       498.53806        38.45406
C11  22403169.30905    339377.45205     -2853.44805        35.42005                                                                
C23  22589465.13907   1685268.68707     -2737.96807        44.45507  22589281.36605    248904.78405     -2063.65305        32.39905
C28  23692701.38424   -207244.45324      1731.74324        28.22324  23692508.31804   -155299.13204      1305.34804        26.49104
C34  24067767.83125    434548.53125     -3737.73525        33.59625  24067593.65223    331078.14523     -2816.51723        22.43423
C37  23008434.99225    -56115.16725       468.79825        31.19125                                                                
C43  21608720.19405    162376.82705     -1373.19605        32.63805  21608531.32504    122632.72104     -1034.24204        27.44004
E02  23528092.54005    238859.83205     -2016.28105        32.66005  23527905.47024    180191.13224     -1507.25824        24.32024
E30  24405197.43323    -82561.01523       687.76023        23.06023  24405007.66504    -61289.16704       513.71304        25.66304
E34  25430595.86506   -210146.06006      1788.88006        36.08706  25430429.18005   -156968.29305      1335.69405        31.74205
E36  23711872.21205     88692.81705      -781.93905        30.34505  23711689.63923     65604.59423      -584.66923        23.01323
> 2023 07 14 05 58 52.9995210  0 19                      
G05  23700063.08824     93954.30224      -850.97324        23.52924                                                                
G16  21787984.99223   -186017.27323      1631.71523        23.29123                                                                
G18  21126143.67524    -86568.62224       682.67824        29.32924  21125963.80005    -64677.49005       507.06905        30.96305
G26  20262047.07706     44525.85006      -399.15706        38.44406  20261868.10105     34118.25805      -298.45705        35.13705
G29  22126275.59806    442596.62806     -3649.46906        37.06006                                                                
G31  21788208.03706    384780.81806     -3193.30306        38.38506                                                                
R22  20425756.84325    462289.59425     -3832.94725        32.20925
R13  19178359.69814    139926.59414     -1196.96614        26.25314
R23  19455164.97006    -66154.40006       496.60306        37.56906
C11  22403537.15425    342231.73225     -2853.54025        31.45825                                                                
C23  22589810.50007   1688006.84807     -2738.31507        43.51307  22589628.82505    250968.23405     -2063.66605        35.34405
C28  23692188.43924   -208978.54924      1728.99024        28.47724  23691995.97224   -156604.19824      1305.02924        24.01224
C34  24068305.65925    438287.72825     -3738.73825        35.28025  24068132.07923    333895.39223     -2816.67823        23.27723
C37  23008166.97725    -56584.06525       468.78025        31.13225                                                                
C43  21608799.04025    163749.72725     -1373.36525        32.22125  21608616.16624    123666.29524     -1036.78624        24.06424
E02  23528290.70325    240877.23425     -2016.62625        29.83325  23528105.73104    181697.10604     -1504.59604        26.53604
E30  24404875.75625    -83268.71725       687.77025        30.20325  24404697.97904    -61802.91204       514.10704        24.39004
E34  25430073.32705   -211935.00105      1788.83805        33.89605  25429908.74104   -158304.13504      1335.40704        29.43504
E36  23711839.83504     89476.82304      -783.02604        28.48604  23711658.16104     66190.08304      -585.48804        27.40904
> 2023 07 14 05 58 53.9995204  0 19                      
G05  23700042.10224     94810.53424      -852.10124        23.57124                                                                
G16  21787496.03023   -187644.48423      1630.66323        19.49423                                                                
G18  21125817.80124    -87248.23924       674.67424        25.97524  21125654.71405    -65184.88205       507.74505        29.68005
G26  20261939.75105     44926.17205      -400.09105        34.65305  20261762.87305     34416.84705      -297.87605        32.76805
G29  22126788.54306    446247.57206     -3651.24206        35.84206                                                                
G31  21788639.43906    387974.68006     -3194.23606        39.62106                                                                
R22  20426288.67524    466123.90924     -3834.32124        28.92824
R13  19178421.15524    141124.50324     -1198.77724        28.84324
R23  19454887.96106    -66651.27406       496.01606        36.34206
C11  22403899.00325    345086.11925     -2854.59625        30.00925                                                                
C23  22590159.45807   1690745.97007     -2739.69507        41.54107  22589975.38506    253032.37106     -2064.20306        39.31606
C28  23691670.09824   -210709.62624      1733.07124        28.64324  23691482.12804   -157908.53804      1303.61904        25.83504
C34  24068843.48626    442026.47526     -3738.81626        35.57726  24068669.60723    336712.92223     -2816.84123        23.40123
C37  23007899.56325    -57052.17225       467.57725        29.70025                                                                
C43  21608900.07025    165123.37325     -1374.38325        33.60725  21608699.50924    124695.24324     -1035.39324        29.40124
E02  23528479.57305    242894.66605     -2017.94305        33.44105  23528310.19004    183203.63304     -1506.53304        28.38504
E30  24404565.17105    -83956.17405       686.87805        33.61205  24404389.49323    -62316.26823       512.48923        22.71523
E34  25429554.08624   -213722.87224      1787.05424        29.12324  25429385.60304   -159640.29704      1337.16704        24.37104
E36  23711815.25204     90261.59904      -784.61704        27.27004  23711626.98204     66775.87304      -585.94904        26.34104
> 2023 07 14 05 58 54.9995197  0 20                      
G05  23699991.43724     95668.12524      -853.69024        25.42524                                                                
G16  21786980.98724   -189267.45124      1627.48324        23.83824                                                                
G18  21125496.12324    -87926.19824       679.52624        26.93224  21125316.24804    -65691.60604       506.49804        29.38204
G20  24646103.15823    308562.92323     -2660.11523        23.17323                                                                
G26  20261802.14605     45327.00605      -402.06105        32.66405  20261628.86605     34716.16305      -299.72205        31.87205
G29  22127264.61305    449898.81705     -3651.85105        32.81605                                                                
G31  21789035.46506    391169.16106     -3194.03706        37.08506                                                                
R22  20426813.61124    469959.10724     -3834.40924        29.44724
R13  19178439.14325    142323.29325     -1199.51325        30.49925
R23  19454586.97005    -67147.19405       495.00605        35.37905
C11  22404233.87224    347940.94124     -2854.54224        29.10924                                                                
C23  22590472.44106   1693485.64206     -2740.08106        41.30706  22590291.06706    255096.98806     -2064.72706        39.24806
C28  23691107.98725   -212439.89125      1729.71825        31.32725  23690942.20204   -159212.65904      1304.23704        26.87704
C34  24069351.03526    445765.77726     -3740.22826        36.49326                                                                
C37  23007594.37424    -57519.61524       465.80324        26.36824                                                                
C43  21608955.23225    166497.83425     -1374.84425        34.90425  21608753.17105    125730.99405     -1035.91805        29.76705
E02  23528658.24905    244912.44105     -2017.88205        34.22005  23528483.47004    184710.39104     -1506.87004        29.43804
E30  24404224.00705    -84643.05205       686.23305        33.18805  24404053.12624    -62829.11624       513.46124        23.67424
E34  25429009.36304   -215510.56304      1787.25104        28.80004                                                                
E36  23711757.99204     91046.84204      -785.83304        29.38204  23711566.72404     67362.23104      -586.73804        25.62504
> 2023 07 14 05 58 55.9995191  0 20                      
G05  23699965.35524     96523.62624      -855.79324        27.44724                                                                
G16  21786492.62523   -190889.97923      1625.22823        23.47923                                                                
G18  21125185.23924    -88604.25824       681.84124        26.85724                                                                
G20  24646431.73023    311225.49823     -2668.61523        23.07723                                                                
G26  20261697.81825     45720.01725      -396.84125        29.85025  20261525.73805     35015.84505      -300.25105        32.57005
G29  22127777.85805    453550.32705     -3651.18405        31.16305                                                                
G31  21789459.07106    394364.32306     -3195.82006        35.73706                                                                
R22  20427375.12224    473789.57524     -3836.06024        26.52024
R13  19178474.21925    143522.97425     -1200.38725        30.74925
R23  19454317.45605    -67642.26005       494.09605        33.93705
C11  22404603.51624    350796.21824     -2855.95824        28.57524                                                                
C23  22590824.39807   1696225.80607     -2740.56307        41.58807  22590638.22706    257162.02206     -2065.61806        39.43106
C28  23690598.04025   -214169.80325      1729.01925        30.11525  23690427.75804   -160516.42304      1303.77804        27.26804
C34  24069880.76825    449505.20025     -3739.70825        33.11325                                                                
C37  23007327.85824    -57986.24024       467.62224        27.66124                                                                
C43  21609036.47525    167872.67825     -1375.24525        33.74125  21608836.21405    126767.19405     -1036.63305        29.91405
E02  23528862.40805    246930.56605     -2018.43105        34.95605  23528685.23004    186217.52904     -1507.36004        28.79404
E30  24403914.92105    -85329.57805       686.15905        33.31205  24403749.43604    -63341.49304       511.29004        24.59204
E34  25428490.12304   -217298.05904      1788.04804        29.07104                                                                
E36  23711727.41305     91832.50405      -787.02205        29.73405  23711534.34604     67948.85204      -586.69104        25.63004
> 2023 07 14 05 58 56.9995184  0 20                      
G05  23699902.99924     97380.88824      -857.68724        26.50224                                                                
G16  21785972.48523   -192510.83223      1624.39823        20.93123                                                                
G18  21124842.27624    -89286.74524       675.81824        26.71924  21124668.39624    -66703.28824       506.04824        24.81924
G20  24646725.82724    313888.04524     -2664.12424        23.57524                                                                
G26  20261564.71124     46117.65424      -399.13324        29.43224  20261392.03005     35315.98905      -300.67205        31.30305
G29  22128265.32105    457202.37105     -3652.22505        31.83805                                                                
G31  21789860.49306    397560.11806     -3196.42406        36.48706                                                                
R22  20427909.35324    477620.24524     -3833.05624        25.29524
R13  19178485.01125    144723.52125     -1201.20825        30.89825
R23  19454013.16705    -68136.50005       493.59005        33.79605
C11  22404944.97904    353651.82604     -2855.86904        29.20904                                                                
C23  22591138.28007   1698966.60607     -2741.06507        42.05507  22590954.20806    259227.44806     -2065.58006        39.41806
C28  23690060.81224   -215900.04624      1729.27724        29.07124  23689884.83404   -161819.93504      1303.87804        27.14904
C34  24070393.71305    453245.19105     -3741.24205        33.53605                                                                
C37  23007026.26704    -58452.68904       466.13704        29.45604                                                                
C43  21609093.73605    169248.24005     -1375.86805        32.96805  21608889.57704    127803.66704     -1036.16204        29.39504
E02  23529036.88705    248949.16505     -2018.81005        34.43305  23528859.70904    187724.89704     -1507.49804        29.12204
E30  24403575.25605    -86015.81305       685.95505        33.64905  24403408.57204    -63854.26804       512.82904        24.18404
E34  25427938.50404   -219084.93804      1786.63204        27.61504  25427767.92323   -163654.76023      1335.76223        22.95523
E36  23711671.35204     92618.85804      -787.49004        29.06904  23711474.98704     68536.08904      -588.11004        26.58904
> 2023 07 14 05 58 57.9995178  0 20                      
G05  23699896.70314     98237.73714      -855.44914        26.73614                                                                
G16  21785481.12514   -194132.29614      1625.05014        25.42014                                                                
G18  21124534.98914    -89963.26014       672.41114        28.12114  21124352.71524    -67213.28124       505.18724        23.84824
G20  24647054.39923    316553.09123     -2663.82623        21.77423                                                                
G26  20261467.27825     46520.03325      -403.75725        32.73625  20261289.50105     35616.26805      -300.06605        32.75605
G29  22128778.86524    460853.99924     -3651.41024        29.26624                                                                
G31  21790288.89706    400756.21806     -3195.96306        38.65506                                                                
R22  20428420.79924    481456.50924     -3834.41324        29.21324
R13  19178545.26925    145924.71225     -1201.56525        31.36625
R23  19453756.24505    -68630.28005       494.02205        33.61105
C11  22405305.33024    356507.71124     -2855.91924        27.40324                                                                
C23  22591489.03807   1701707.67007     -2740.85207        42.01907  22591301.06806    261293.15706     -2065.42206        39.54006
C28  23689550.56524   -217621.19324      1723.31924        27.78424  23689373.68804   -163123.21404      1303.43504        28.61504
C34  24070942.63306    456984.71006     -3737.43506        37.74206                                                                
C37  23006765.44824    -58918.55724       467.35324        27.71824                                                                
C43  21609171.98205    170623.98805     -1375.27605        32.40805  21608975.61705    128840.46305     -1036.23105        30.37405
E02  23529242.54405    250968.00405     -2018.51105        34.55705  23529063.56804    189232.49004     -1507.40904        27.82504
E30  24403253.27905    -86701.85905       686.05605        33.54405  24403097.38704    -64366.46104       512.37104        25.36504
E34  25427417.46505   -220871.72405      1786.84505        29.53305  25427248.38223   -164988.74323      1332.50923        22.24023
E36  23711629.08104     93405.31104      -785.53104        28.46204  23711444.40924     69123.47424      -587.88124        24.79224
> 2023 07 14 05 58 58.9995172  0 20                      
G05  23699872.12014     99095.30814      -855.06714        26.71314                                                                
G16  21784997.26023   -195751.43123      1624.98323        22.87023                                                                
G18  21124218.70824    -90634.79524       670.09424        24.80424  21124040.93124    -67717.98224       505.27524        24.05724
G20  24647382.07223    319223.06123     -2664.63923        21.63023                                                                
G26  20261364.74925     46923.06725      -402.90325        32.65825  20261185.77305     35917.10205      -300.70605        31.82605
G29  22129281.31714    464506.51414     -3651.32014        28.94614                                                                
G31  21790723.89606    403952.98306     -3197.00706        37.25206                                                                
R22  20428979.91124    485291.40324     -3838.95624        26.79924
R13  19178577.94725    147126.73825     -1202.24025        31.22825
R23  19453481.63505    -69123.07305       492.78405        33.74405
C11  22405672.57624    359363.89624     -2856.58624        29.29424                                                                
C23  22591831.40107   1704449.29107     -2741.62907        42.03507  22591647.92806    263359.22506     -2065.75006        38.48606
C28  23689039.71924   -219345.91724      1728.95824        25.00224  23688862.54204   -164426.39104      1303.01404        28.25204
C34  24071482.26025    460722.45925     -3742.69625        35.04325                                                                
C37  23006501.93024    -59383.87524       464.73924        28.19424                                                                
C43  21609265.81705    172000.35105     -1376.45205        31.38605  21609059.26004    129877.58404     -1037.16504        27.73304
E02  23529444.60405    252987.20505     -2019.51005        34.37905  23529269.52604    190740.25604     -1507.55704        28.75304
E30  24402957.98405    -87387.80305       686.09405        33.61405  24402788.90123    -64878.72323       512.82023        23.38423
E34  25426897.02505   -222658.28005      1786.61205        31.80805  25426729.14224   -166322.96224      1334.21324        23.62724
E36  23711606.59604     94192.63404      -787.86404        25.46604  23711414.13004     69711.06304      -587.31104        26.38404
> 2023 07 14 05 58 59.9995165  0 20                      
G05  23699836.44524     99953.57424      -858.88424        27.52224                                                                
G16  21784476.22114   -197372.80814      1622.12914        25.87714                                                                
G18  21123884.13924    -91303.34124       670.75224        25.26324  21123705.46304    -68222.38104       503.73304        24.81704
G20  24647672.27223    321888.70923     -2662.70023        22.36223                                                                
G26  20261229.24326     47326.53126      -404.16726        35.89426  20261053.86405     36218.32005      -301.70805        32.99705
G29  22129781.37114    468159.08914     -3652.99014        28.17814                                                                
G31  21791120.22106    407150.20606     -3197.81706        39.30806                                                                
R22  20429470.37224    489132.73524     -3840.80924        25.01624
R13  19178604.92825    148329.70525     -1203.54525        31.91725
R23  19453185.14005    -69615.00505       491.28305        31.47405
C11  22406016.13824    362220.42324     -2851.93324        26.23724                                                                
C23  22592150.68006   1707191.36906     -2742.17806        40.50106  22591964.50806    265425.71906     -2066.85306        37.62906
C28  23688491.09925   -221074.79325      1728.87525        30.37025  23688320.51704   -165729.28704      1302.76504        29.16504
C34  24071979.91526    464462.60126     -3740.49826        38.84026                                                                
C37  23006203.63724    -59848.92324       468.02724        25.80524                                                                
C43  21609309.58605    173377.11905     -1377.42905        32.41105  21609113.52204    130915.15504     -1038.35904        28.09404
E02  23529633.77305    255006.63605     -2019.64305        32.53505  23529445.50404    192248.36704     -1508.11804        27.06004
E30  24402600.33105    -88073.38305       685.57105        33.05705  24402443.84004    -65390.57904       511.85604        25.80604
E34  25426349.30505   -224444.46505      1786.82905        29.50405  25426178.42324   -167656.92124      1334.04624        23.66824
E36  23711532.24804     94980.13804      -787.45504        27.30604  23711352.97223     70299.29423      -588.16223        22.33023
> 2023 07 14 05 59 00.9995159  0 20                      
G05  23699821.45504    100813.09304      -858.84604        29.15304                                                                
G16  21783995.35414   -198993.04014      1616.31114        26.46714                                                                
G18  21123582.84824    -91976.88224       675.58124        26.43524                                                                
G20  24647992.15014    324554.37914     -2662.87514        24.83614                                                                
G26  20261128.21305     47730.66905      -404.93205        35.01805  20260951.63505     36520.16305      -301.66305        33.98005
G29  22130282.92414    471812.32114     -3652.57314        27.24114                                                                
G31  21791549.82406    410348.17306     -3197.45106        36.67906                                                                
R22  20430020.49124    492970.29424     -3841.76424        29.30624
R13  19178647.79825    149533.71425     -1203.69525        31.54425
R23  19452911.43005    -70106.21505       491.33305        30.48905
C11  22406380.08624    365077.23524     -2852.47724        25.01024                                                                
C23  22592497.24007   1709934.23307     -2742.47207        42.11607  22592311.96806    267492.80406     -2066.77206        36.39306
C28  23687982.65125   -222803.12225      1729.15725        32.09325  23687808.47104   -167031.73504      1302.64104        28.70904
C34  24072515.34425    468203.06725     -3739.04825        34.99525                                                                
C37  23005943.11724    -60310.09524       466.67824        24.50924                                                                
C43  21609393.82805    174754.52605     -1376.75605        34.57005  21609197.46404    131954.49104     -1041.56204        25.30004
E02  23529819.64505    257026.71805     -2019.79605        32.69005  23529650.56204    193756.91704     -1508.71204        25.19604
E30  24402297.24105    -88758.42205       686.23505        32.32305  24402132.35504    -65902.09504       511.72804        25.42004
E34  25425829.76405   -226230.09705      1786.01305        32.14505  25425658.28324   -168990.14724      1333.01724        23.63824
E36  23711502.86805     95768.42905      -788.22705        29.52205  23711323.89224     70888.15824      -587.09624        24.09424
> 2023 07 14 05 59 01.9995151  0 20                      
G05  23699776.18614    101672.84714      -861.48914        27.45814                                                                
G16  21783490.20424   -200610.77624      1621.47724        24.17324                                                                
G18  21123241.38414    -92651.12414       674.41314        27.26114                                                                
G20  24648288.04523    327220.10423     -2663.12623        21.27423                                                                
G26  20260996.60406     48134.83606      -404.49906        38.81806  20260818.82706     36822.11806      -302.62306        36.07306
G29  22130773.68424    475465.18324     -3658.52924        27.07824                                                                
G31  21791953.04505    413545.95105     -3198.51405        35.10105                                                                
R22  20430503.45724    496809.52124     -3838.73324        29.33524
R13  19178645.10025    150738.09625     -1205.20625        30.63125
R23  19452605.94106    -70597.00506       490.57006        37.25806
C11  22406719.15124    367934.23024     -2854.09324        25.62824                                                                
C23  22592810.82306   1712677.08106     -2742.69206        41.50006  22592628.54905    269559.86505     -2068.15105        32.57505
C28  23687439.12725   -224531.96425      1729.08525        32.49425  23687266.44704   -168334.40204      1302.42704        29.41204
C34  24073039.08225    471943.53025     -3739.43725        34.33625                                                                
C37  23005641.22624    -60771.38924       465.21124        28.02424                                                                
C43  21609447.19105    176131.92505     -1378.07605        32.69405  21609253.22524    132990.04224     -1039.07224        24.20824
E02  23530014.21005    259046.94605     -2020.78405        30.49405  23529828.93804    195265.43104     -1508.40304        24.64004
E30  24401956.67704    -89445.80104       688.57804        27.90404  24401792.99023    -66413.82423       510.05323        23.26623
E34  25425279.94505   -228015.95005      1785.11305        31.76405  25425107.26504   -170324.10504      1334.34704        27.42604
E36  23711439.01204     96556.55804      -788.44504        27.76604  23711268.13124     71476.94624      -590.67424        23.86224
> 2023 07 14 05 59 02.9995146  0 20                      
G05  23699761.19724    102533.06924      -862.99924        27.40924                                                                
G16  21783002.44124   -202231.58424      1620.91224        25.19224                                                                
G18  21122934.39714    -93325.05414       672.47814        27.19314  21122754.52105    -69740.15905       503.08305        30.08505
G20  24648616.61823    329886.19223     -2665.36623        19.41623                                                                
G26  20260890.47707     48539.20707      -404.87407        41.99007  20260714.79905     37124.03005      -302.61805        34.01405
G29  22131294.72325    479117.98425     -3653.24825        33.48425                                                                
G31  21792371.25506    416744.60406     -3199.30006        40.64806                                                                
R22  20431009.80625    500648.53825     -3839.34925        30.22925
R13  19178701.76125    151942.89025     -1206.05925        29.72025
R23  19452327.43406    -71087.34706       489.96006        40.49406
C11  22407115.17725    370791.09225     -2857.11625        31.20125                                                                
C23  22593156.48306   1715420.06106     -2743.32806        39.07606  22592974.80905    271626.94705     -2068.19505        30.67505
C28  23686932.47825   -226260.05625      1727.44725        32.05025  23686754.40104   -169636.84504      1301.72504        28.07404
C34  24073582.30606    475684.18806     -3740.41706        39.66406  24073409.02623    362074.80523     -2818.60123        21.80823
C37  23005348.92805    -61235.47805       463.69205        31.28905                                                                
C43  21609523.33805    177509.57205     -1377.40305        31.26905  21609340.16524    134022.54624     -1037.01124        24.81224
E02  23530219.86805    261066.89505     -2020.07605        32.12805  23530042.99023    196774.15823     -1504.72523        21.88923
E30  24401646.69224    -90132.60724       684.95524        27.93724                                                                
E34  25424758.30605   -229801.73705      1785.13705        32.06205  25424588.32404   -171657.44804      1333.06404        27.70404
E36  23711416.52804     97345.20804      -789.40204        27.28404  23711241.74904     72065.76104      -589.17604        25.56904
